~Version ---------------------------------------------------
VERS.   2.0 : CWLS log ASCII Standard -VERSION 2.0
WRAP.    NO : One line per depth step
DLM . SPACE : Column Data Section Delimiter
~Well ------------------------------------------------------
STRT.m         2656.86523 : START DEPTH
STOP.m         1480.87085 : STOP DEPTH
STEP.m           -0.07617 : STEP
NULL.             -999.25 : NULL VALUE
COMP.           PETROBRAS : COMPANY
WELL.       3-BRSA-19-RJS : WELL
FLD .              BS-500 : FIELD
LOC .                     : LOCATION
PROV.                     : PROVINCE
CNTY.                     : COUNTY
STAT.                     : STATE
CTRY.                     : COUNTRY
SRVC.                     : SERVICE COMPANY
DATE. 2004-06-30 00:00:00 : DATE
UWI .         74316019025 : UNIQUE WELL ID
API .         74316019025 : API NUMBER
~Curve Information -----------------------------------------
DEPT.m      : None
SPD .m/min  : None
DEPM.m      : None
GR  .gAPI   : None
S024.us     : None
S023.us     : None
S022.us     : None
S021.us     : None
TEN .lbf    : None
TTEN.lbf    : None
DT  .us/ft  : None
TT  .ms     : None
~Params ----------------------------------------------------
PROD   .                                  : 
PROG   .                         ['HOIS'] : 
RUN    .                           ['01'] : 
DESCENT.                               [] : 
VERSION.                                  : 
LINEAGE.       Python-converted from DLIS : 
ORFILE . ../inputs/3-brsa-19-rjs_mac.dlis : 
~Other -----------------------------------------------------
~ASCII -----------------------------------------------------
# ...
 1736.52173    9.95082 1736.52173   46.87603  796.87500  769.00000  740.87500  714.00000    3.57934 4381.18359   57.65318  175.19684
 1736.44556    9.92521 1736.44556   47.04460  797.00000  768.87500  740.87500  714.00000   -0.30365 4377.32520   58.13615  175.21140
 1736.36938    9.89361 1736.36938   46.97061  796.87500  769.00000  740.87500  714.00000   -5.35036 4372.28613   58.42420  175.22598
 1736.29321    9.86849 1736.29297   46.80933  796.87500  769.00000  740.87500  714.00000  -12.49465 4365.12305   58.53516  175.24063
 1736.21704    9.86032 1736.21680   46.69620  796.87500  769.00000  740.87500  714.00000  -21.27777 4356.28516   58.42222  175.25522
 1736.14087    9.87248 1736.14062   46.60307  796.87500  769.00000  740.87500  714.00000  -30.83723 4346.63184   58.05728  175.26974
 1736.06470    9.89902 1736.06445   46.45568  797.00000  769.00000  740.87500  714.00000  -40.26395 4337.07324   57.45378  175.28409
 1735.98853    9.92956 1735.98828   46.28905  796.87500  769.00000  740.75000  714.00000  -48.16393 4329.00586   56.72758  175.29828
 1735.91235    9.95391 1735.91211   46.20665  796.87500  769.00000  740.87500  713.87500  -52.20943 4324.76562   56.07257  175.31229
 1735.83594    9.96629 1735.83594   46.22883  796.87500  769.00000  740.87500  713.87500  -50.09887 4326.67383   55.61771  175.32620
 1735.75977    9.96552 1735.75977   46.28274  796.87500  769.00000  740.87500  714.00000  -41.20100 4335.38672   55.37582  175.34003
 1735.68359    9.95535 1735.68335   46.23369  796.87500  769.00000  740.75000  714.00000  -27.58369 4348.85938   55.28850  175.35385
 1735.60742    9.94239 1735.60718   46.03440  797.00000  768.87500  740.87500  714.00000  -13.26497 4363.08691   55.28500  175.36768
 1735.53125    9.93158 1735.53101   45.78386  796.87500  769.00000  740.87500  714.00000   -1.28715 4375.02344   55.29761  175.38150
 1735.45508    9.92431 1735.45483   45.61304  796.87500  769.00000  740.87500  714.00000    7.87902 4384.19336   55.30803  175.39532
 1735.37891    9.91937 1735.37866   45.62437  796.87500  769.00000  740.87500  714.00000   13.92521 4390.27441   55.31853  175.40915
 1735.30273    9.91406 1735.30249   45.96041  797.00000  769.12500  740.87500  714.00000   16.07268 4392.47461   55.32140  175.42297
 1735.22632    9.90527 1735.22632   46.63200  797.00000  769.12500  741.00000  714.12500   13.78511 4390.24121   55.32233  175.43680
 1735.15015    9.89262 1735.15015   47.47856  797.12500  769.12500  740.87500  714.12500    6.50243 4382.99121   55.32576  175.45062
 1735.07397    9.87816 1735.07373   48.20741  797.00000  769.12500  740.87500  714.12500   -4.79267 4371.68848   55.32898  175.46448
 1734.99780    9.86617 1734.99756   48.57543  797.00000  769.12500  741.00000  714.12500  -16.94425 4359.47852   55.32849  175.47830
 1734.92163    9.86042 1734.92139   48.44241  797.12500  769.12500  741.00000  714.12500  -26.13742 4350.18457   55.32426  175.49213
 1734.84546    9.86378 1734.84521   47.77827  797.00000  769.12500  740.87500  714.00000  -30.87770 4345.31836   55.31664  175.50595
 1734.76929    9.87604 1734.76929   46.68877  797.12500  769.25000  741.00000  714.00000  -32.01192 4344.05273   55.30621  175.51978
 1734.69312    9.89385 1734.69287   45.34269  797.12500  769.12500  740.87500  714.00000  -31.84047 4344.09180   55.32819  175.53360
 1734.61694    9.91186 1734.61670   44.05897  797.00000  769.12500  740.87500  714.00000  -32.44341 4343.34961   55.40357  175.54745
 1734.54053    9.92514 1734.54053   43.12702  797.00000  769.12500  740.75000  713.87500  -33.15083 4342.48926   55.44193  175.56131
 1734.46436    9.93085 1734.46411   42.56013  797.00000  769.00000  740.75000  713.87500  -31.28853 4344.19531   55.43803  175.57516
 1734.38818    9.92933 1734.38794   42.14053  797.00000  769.00000  740.75000  713.87500  -25.05287 4350.28711   55.65638  175.58908
 1734.31201    9.92362 1734.31201   41.64897  797.00000  769.00000  740.75000  713.87500  -15.86366 4359.36426   56.39775  175.60318
 1734.23584    9.91772 1734.23584   41.02644  797.00000  769.12500  740.75000  714.00000   -8.00390 4367.14551   57.77351  175.61765
 1734.15967    9.91487 1734.15967   40.34258  797.12500  769.12500  740.75000  714.12500   -6.51251 4368.57031   59.70433  175.63257
 1734.08350    9.91578 1734.08325   39.73663  796.62500  768.87500  740.87500  713.50000  -13.39519 4361.59863   61.98355  175.64807
 1734.00732    9.91952 1734.00708   39.40616  795.62500  767.62500  739.37500  711.50000  -25.82706 4349.02930   64.40582  175.66415
 1733.93115    9.92278 1733.93091   39.49389  798.75000  772.25000  743.00000  717.00000  -37.83305 4336.83398   66.79022  175.68085
 1733.85474    9.92325 1733.85474   40.04358  794.00000  798.62500  772.12500  708.62500  -43.85975 4330.58008   68.73433  175.69803
 1733.77856    9.92085 1733.77856   40.93309  797.62500  771.75000  741.37500  716.00000  -41.53371 4332.66895   69.69685  175.71545
 1733.70239    9.91640 1733.70239   41.96227  807.50000  777.62500  747.50000  730.87500  -33.11758 4340.86230   69.48244  175.73282
 1733.62622    9.91115 1733.62622   42.99105  821.00000  789.00000  763.75000  732.75000  -23.88749 4349.89160   68.26402  175.74988
 1733.55005    9.90765 1733.55005   43.88221  818.37500  788.12500  741.00000  714.75000  -18.84615 4354.75195   66.34227  175.76648
 1733.47388    9.90848 1733.47363   44.48564  798.75000  772.37500  748.00000  718.50000  -19.66354 4353.76172   64.02048  175.78247
 1733.39771    9.91480 1733.39746   44.70815  804.87500  774.37500  747.62500  721.62500  -24.25441 4348.99902   61.51342  175.79785
 1733.32153    9.92618 1733.32129   44.63636  803.87500  774.75000  747.62500  721.50000  -28.76742 4344.31738   59.08154  175.81262
 1733.24512    9.93951 1733.24512   44.54088  804.00000  774.50000  747.62500  721.12500  -29.87197 4343.05469   57.13181  175.82690
 1733.16895    9.95030 1733.16895   44.68056  803.87500  774.62500  747.75000  721.00000  -26.67601 4346.11133   55.94355  175.84091
 1733.09277    9.95459 1733.09277   45.03887  803.87500  774.62500  747.62500  721.00000  -20.95124 4351.72266   55.41435  175.85477
 1733.01660    9.95101 1733.01660   45.41972  803.87500  774.75000  747.62500  720.87500  -16.27588 4356.30664   55.26202  175.86856
 1732.94043    9.93942 1732.94043   45.57337  803.87500  774.62500  747.62500  721.00000  -15.57227 4356.93066   55.26385  175.88239
 1732.86426    9.92404 1732.86401   45.30481  803.87500  774.50000  747.62500  721.00000  -19.81248 4352.59863   55.28455  175.89621
 1732.78809    9.91015 1732.78784   44.62500  804.00000  774.62500  747.50000  721.00000  -28.01344 4344.27539   55.29053  175.91003
 1732.71191    9.90297 1732.71167   43.82925  803.87500  774.50000  747.62500  720.87500  -37.29169 4334.83301   55.29372  175.92386
 1732.63574    9.90524 1732.63550   43.31995  803.87500  774.50000  747.62500  720.87500  -44.50307 4327.42285   55.29896  175.93768
 1732.55933    9.91694 1732.55933   43.33727  803.87500  774.62500  747.62500  721.00000  -47.66688 4324.04004   55.30618  175.95151
 1732.48315    9.93431 1732.48315   43.83795  803.87500  774.62500  747.62500  720.87500  -46.13406 4325.35840   55.30995  175.96533
 1732.40698    9.95094 1732.40698   44.54742  803.87500  774.62500  747.62500  720.87500  -41.17410 4330.13184   55.30649  175.97916
 1732.33081    9.96033 1732.33081   45.04309  803.87500  774.62500  747.62500  720.87500  -35.14161 4336.01855   55.29789  175.99298
 1732.25464    9.95877 1732.25439   45.13911  804.00000  774.62500  747.62500  720.87500  -29.77589 4341.27637   55.28917  176.00681
 1732.17847    9.94811 1732.17822   44.90127  803.87500  774.62500  747.62500  721.00000  -24.87846 4346.09473   55.28548  176.02063
 1732.10229    9.93453 1732.10205   44.51488  803.87500  774.50000  747.62500  720.87500  -19.48602 4351.42773   55.28863  176.03445
 1732.02612    9.92491 1732.02588   44.20564  803.87500  774.50000  747.62500  720.87500  -13.79555 4357.07227   55.29315  176.04828
 1731.94995    9.92360 1731.94971   44.10102  803.87500  774.50000  747.62500  720.87500   -9.45500 4361.37305   55.29913  176.06210
