~Version ---------------------------------------------------
VERS.   2.0 : CWLS log ASCII Standard -VERSION 2.0
WRAP.    NO : One line per depth step
DLM . SPACE : Column Data Section Delimiter
~Well ------------------------------------------------------
STRT.m         2656.86523 : START DEPTH
STOP.m         1480.87085 : STOP DEPTH
STEP.m           -0.07617 : STEP
NULL.             -999.25 : NULL VALUE
COMP.           PETROBRAS : COMPANY
WELL.       3-BRSA-19-RJS : WELL
FLD .              BS-500 : FIELD
LOC .                     : LOCATION
PROV.                     : PROVINCE
CNTY.                     : COUNTY
STAT.                     : STATE
CTRY.                     : COUNTRY
SRVC.                     : SERVICE COMPANY
DATE. 2004-06-30 00:00:00 : DATE
UWI .         74316019025 : UNIQUE WELL ID
API .         74316019025 : API NUMBER
~Curve Information -----------------------------------------
DEPT.m      : None
SPD .m/min  : None
DEPM.m      : None
GR  .gAPI   : None
S024.us     : None
S023.us     : None
S022.us     : None
S021.us     : None
TEN .lbf    : None
TTEN.lbf    : None
DT  .us/ft  : None
TT  .ms     : None
~Params ----------------------------------------------------
PROD   .                                  : 
PROG   .                         ['HOIS'] : 
RUN    .                           ['01'] : 
DESCENT.                               [] : 
VERSION.                                  : 
LINEAGE.       Python-converted from DLIS : 
ORFILE . ../inputs/3-brsa-19-rjs_mac.dlis : 
~Other -----------------------------------------------------
~ASCII -----------------------------------------------------
# ...
 1583.13110    9.45521 1583.13110   26.83634  803.62500  777.62500  747.00000  713.00000  -18.93819 4211.21680   55.38438  203.53860
 1583.05493    9.45320 1583.05493   27.04361  801.87500  786.12500  749.50000  716.12500  -11.98751 4218.04297   55.39842  203.55246
 1582.97876    9.46188 1582.97876   27.34295  804.75000  773.87500  740.00000  711.50000   -3.10229 4226.83398   55.38327  203.56631
 1582.90259    9.47677 1582.90234   27.56039  813.12500  778.87500  741.62500  713.75000    5.66137 4235.54102   55.32586  203.58014
 1582.82642    9.49014 1582.82642   27.59409  803.00000  767.62500  739.25000  713.87500   11.76417 4241.62598   55.25017  203.59393
 1582.75024    9.49553 1582.75024   27.40166  805.62500  771.37500  740.62500  713.75000   13.74398 4243.61426   55.18618  203.60773
 1582.67407    9.48945 1582.67383   27.00415  796.00000  766.50000  740.50000  713.75000   11.82773 4241.71973   55.14957  203.62152
 1582.59790    9.47463 1582.59766   26.50073  797.87500  768.62500  740.37500  713.75000    7.32692 4237.23535   55.14124  203.63531
 1582.52148    9.45633 1582.52148   26.06406  795.25000  768.75000  740.37500  713.75000    0.99653 4230.89844   55.14912  203.64911
 1582.44531    9.44106 1582.44531   25.81120  796.62500  767.25000  740.50000  713.75000   -7.51634 4222.33887   55.15932  203.66290
 1582.36914    9.43339 1582.36914   25.78755  796.50000  767.25000  740.50000  713.62500  -18.13104 4211.62207   55.17109  203.67670
 1582.29297    9.43459 1582.29297   25.99110  796.37500  768.75000  740.50000  713.62500  -28.66574 4200.93164   55.19395  203.69049
 1582.21680    9.44255 1582.21680   26.33444  796.50000  768.75000  740.37500  713.62500  -35.63302 4193.77051   55.23326  203.70428
 1582.14062    9.45461 1582.14062   26.66480  796.50000  768.75000  740.37500  713.50000  -36.17236 4193.03320   55.27979  203.71811
 1582.06445    9.46743 1582.06421   26.88181  796.62500  768.62500  740.37500  713.25000  -30.59359 4198.44238   55.30688  203.73193
 1581.98828    9.47731 1581.98804   26.94753  796.50000  767.37500  740.25000  713.37500  -22.53353 4206.37305   55.29572  203.74576
 1581.91211    9.48127 1581.91187   26.91838  796.50000  767.37500  740.12500  713.25000  -16.36547 4212.44824   55.26456  203.75958
 1581.83569    9.47836 1581.83569   26.84816  796.50000  767.25000  740.12500  713.37500  -14.05057 4214.69336   55.24756  203.77338
 1581.75952    9.47028 1581.75952   26.76060  796.37500  767.12500  740.12500  713.25000  -14.20618 4214.48242   55.25506  203.78720
 1581.68335    9.46078 1581.68335   26.58841  796.25000  767.12500  740.12500  713.37500  -14.47353 4214.17285   55.27552  203.80103
 1581.60718    9.45457 1581.60718   26.34074  796.25000  767.12500  740.12500  713.37500  -14.01098 4214.61035   55.29601  203.81485
 1581.53101    9.45324 1581.53101   26.09560  796.25000  767.12500  740.12500  713.37500  -13.60496 4215.00195   55.30894  203.82867
 1581.45483    9.45577 1581.45459   25.96814  796.12500  767.25000  740.25000  713.50000  -14.14862 4214.44922   55.31592  203.84250
 1581.37866    9.46005 1581.37842   25.99805  796.25000  767.25000  740.37500  713.62500  -15.59265 4212.99121   55.32053  203.85632
 1581.30249    9.46398 1581.30225   26.24146  796.25000  767.25000  740.37500  713.50000  -17.59199 4210.96875   55.32102  203.87015
 1581.22632    9.46719 1581.22607   26.64104  796.37500  767.25000  740.37500  713.50000  -20.44916 4208.07324   55.31800  203.88397
 1581.14990    9.47127 1581.14990   27.03292  796.50000  768.62500  740.37500  713.62500  -25.41066 4203.04590   55.31333  203.89780
 1581.07373    9.47749 1581.07373   27.30521  796.37500  767.25000  740.25000  713.75000  -34.24078 4194.10156   55.30547  203.91162
 1580.99756    9.48574 1580.99756   27.43751  796.50000  767.25000  740.25000  713.62500  -46.75639 4181.39941   55.29935  203.92545
 1580.92139    9.49503 1580.92139   27.42687  796.50000  768.62500  740.50000  713.87500  -59.77085 4168.11523   55.30453  203.93927
 1580.84521    9.50392 1580.84497   27.28386  796.37500  767.25000  740.37500  713.75000  -68.57466 4158.97754   55.31841  203.95309
 1580.76904    9.51091 1580.76880   27.01681  796.50000  767.25000  740.50000  713.75000  -69.57042 4157.62207   55.33263  203.96692
 1580.69287    9.51483 1580.69263   26.64346  796.37500  768.75000  740.37500  713.62500  -62.50467 4164.35156   55.34415  203.98077
 1580.61670    9.51598 1580.61646   26.17553  796.37500  767.25000  740.37500  713.75000  -50.50833 4176.06348   55.34628  203.99460
 1580.54028    9.51355 1580.54028   25.69981  796.62500  768.87500  740.50000  713.75000  -38.00840 4188.33496   55.33222  204.00845
 1580.46411    9.50857 1580.46411   25.36354  796.50000  768.75000  740.37500  713.75000  -28.34562 4197.81055   55.30540  204.02228
 1580.38794    9.50171 1580.38794   25.22626  796.50000  768.75000  740.37500  713.75000  -22.92545 4203.06543   55.27309  204.03610
 1580.31177    9.49392 1580.31177   25.31079  796.50000  768.75000  740.37500  713.75000  -21.28334 4204.55078   55.24089  204.04990
 1580.23560    9.48647 1580.23535   25.57325  796.50000  768.75000  740.37500  713.75000  -21.35595 4204.32812   55.21602  204.06372
 1580.15942    9.48067 1580.15918   25.90627  796.62500  768.75000  740.37500  713.62500  -20.98967 4204.55957   55.20327  204.07751
 1580.08325    9.47633 1580.08301   26.16401  796.50000  767.25000  740.37500  713.62500  -18.29963 4207.14062   55.20522  204.09131
 1580.00708    9.47296 1580.00684   26.28125  796.50000  767.25000  740.25000  713.62500  -12.50868 4212.86035   55.22845  204.10510
 1579.93091    9.47074 1579.93066   26.27565  796.50000  768.75000  740.37500  713.75000   -5.15205 4220.18262   55.26996  204.11893
 1579.85449    9.47037 1579.85449   26.24933  796.50000  767.25000  740.25000  713.75000    0.54608 4225.86914   55.30927  204.13275
 1579.77832    9.47226 1579.77832   26.33912  796.50000  767.25000  740.25000  713.50000    2.19738 4227.50977   55.32807  204.14658
 1579.70215    9.47686 1579.70215   26.58180  796.62500  768.75000  740.37500  713.75000   -1.17230 4224.10742   55.32471  204.16040
 1579.62598    9.48386 1579.62573   26.88194  796.50000  768.75000  740.25000  713.62500   -8.33706 4216.86914   55.30704  204.17422
 1579.54980    9.49219 1579.54956   27.21059  796.50000  768.75000  740.25000  713.75000  -16.71852 4208.36719   55.28332  204.18805
 1579.47363    9.50043 1579.47339   27.63111  796.62500  768.87500  740.37500  713.62500  -23.38312 4201.54590   55.25807  204.20187
 1579.39746    9.50502 1579.39746   28.16088  796.50000  767.25000  740.37500  713.62500  -26.88314 4197.87109   55.23257  204.21567
 1579.32129    9.50359 1579.32129   28.74372  796.62500  768.87500  740.25000  713.75000  -27.27824 4197.30078   55.21354  204.22949
 1579.24512    9.49635 1579.24487   29.31931  796.50000  767.25000  740.25000  713.62500  -25.84204 4198.57227   55.20969  204.24329
 1579.16870    9.48581 1579.16870   29.77927  796.50000  767.25000  740.25000  713.50000  -23.34881 4200.91797   55.22153  204.25711
 1579.09253    9.47544 1579.09253   29.96722  796.50000  767.25000  740.37500  713.75000  -19.41976 4204.72363   55.24370  204.27090
 1579.01636    9.46872 1579.01611   29.76498  796.37500  767.12500  740.12500  713.50000  -13.33034 4210.72363   55.27041  204.28473
 1578.94019    9.46749 1578.93994   29.16901  796.62500  767.12500  740.37500  713.62500   -6.59998 4217.40332   55.29589  204.29855
 1578.86401    9.47093 1578.86401   28.31644  796.50000  767.12500  740.25000  713.62500   -2.53453 4221.44531   55.31360  204.31238
 1578.78784    9.47672 1578.78784   27.41482  796.37500  767.12500  740.12500  713.50000   -4.24224 4219.71777   55.32015  204.32620
 1578.71167    9.48160 1578.71167   26.60227  796.50000  767.25000  740.25000  713.50000  -12.29975 4211.61426   55.31898  204.34003
 1578.63550    9.48464 1578.63525   25.93594  796.50000  767.12500  740.25000  713.62500  -23.68961 4200.13281   55.31660  204.35385
 1578.55933    9.48790 1578.55908   25.53238  796.37500  767.00000  740.12500  713.50000  -33.01213 4190.67676   55.31456  204.36768
