~Version ---------------------------------------------------
VERS.   2.0 : CWLS log ASCII Standard -VERSION 2.0
WRAP.    NO : One line per depth step
DLM . SPACE : Column Data Section Delimiter
~Well ------------------------------------------------------
STRT.m         2656.86523 : START DEPTH
STOP.m         1480.87085 : STOP DEPTH
STEP.m           -0.07617 : STEP
NULL.             -999.25 : NULL VALUE
COMP.           PETROBRAS : COMPANY
WELL.       3-BRSA-19-RJS : WELL
FLD .              BS-500 : FIELD
LOC .                     : LOCATION
PROV.                     : PROVINCE
CNTY.                     : COUNTY
STAT.                     : STATE
CTRY.                     : COUNTRY
SRVC.                     : SERVICE COMPANY
DATE. 2004-06-30 00:00:00 : DATE
UWI .         74316019025 : UNIQUE WELL ID
API .         74316019025 : API NUMBER
~Curve Information -----------------------------------------
DEPT.m      : None
SPD .m/min  : None
DEPM.m      : None
GR  .gAPI   : None
S024.us     : None
S023.us     : None
S022.us     : None
S021.us     : None
TEN .lbf    : None
TTEN.lbf    : None
DT  .us/ft  : None
TT  .ms     : None
~Params ----------------------------------------------------
PROD   .                                  : 
PROG   .                         ['HOIS'] : 
RUN    .                           ['01'] : 
DESCENT.                               [] : 
VERSION.                                  : 
LINEAGE.       Python-converted from DLIS : 
ORFILE . ../inputs/3-brsa-19-rjs_mac.dlis : 
~Other -----------------------------------------------------
~ASCII -----------------------------------------------------
# ...
 2113.02588    9.75887 2113.02588   41.03918  795.62500  766.62500  739.00000  710.87500    1.14512 4826.35742   56.23387  105.61565
 2112.94971    9.76775 2112.94971   40.00291  795.50000  766.25000  738.62500  710.75000   -1.88848 4823.29980   56.25250  105.62970
 2112.87354    9.77529 2112.87354   39.10983  795.50000  766.00000  738.50000  710.37500   -7.33245 4817.79688   56.24461  105.64377
 2112.79736    9.77756 2112.79736   38.59825  795.12500  765.62500  738.37500  710.37500  -13.20873 4811.82715   56.22407  105.65782
 2112.72119    9.77270 2112.72119   38.54745  795.00000  766.00000  738.50000  710.62500  -17.91530 4807.00098   56.21072  105.67188
 2112.64502    9.76170 2112.64502   38.91653  795.25000  766.12500  738.75000  710.87500  -20.70904 4804.07422   56.20370  105.68593
 2112.56885    9.74758 2112.56885   39.55206  795.62500  766.12500  738.87500  710.75000  -22.71218 4801.93457   56.18064  105.69997
 2112.49268    9.73454 2112.49268   40.29727  795.25000  766.00000  738.75000  710.87500  -25.67267 4798.83594   56.12625  105.71400
 2112.41650    9.72647 2112.41602   41.04935  795.12500  765.87500  738.50000  710.75000  -30.03103 4794.33203   56.05544  105.72801
 2112.34033    9.72478 2112.33984   41.71483  795.12500  766.00000  738.50000  710.75000  -33.90156 4790.30957   56.00056  105.74202
 2112.26416    9.72827 2112.26367   42.18125  795.25000  765.87500  738.37500  710.87500  -34.73250 4789.33008   55.98022  105.75601
 2112.18799    9.73403 2112.18750   42.31178  795.25000  765.87500  738.50000  710.87500  -31.68550 4792.24805   55.98656  105.77000
 2112.11182    9.73897 2112.11133   42.02605  795.25000  765.75000  738.50000  711.00000  -26.29577 4797.53906   56.00113  105.78401
 2112.03516    9.74114 2112.03516   41.38711  795.12500  765.87500  738.75000  711.12500  -20.69394 4803.07520   56.01662  105.79802
 2111.95898    9.74045 2111.95898   40.61856  795.12500  766.00000  738.87500  711.12500  -16.40157 4807.32910   56.04050  105.81203
 2111.88281    9.73917 2111.88281   39.90930  795.25000  766.12500  739.00000  711.00000  -14.04440 4809.66309   56.07841  105.82605
 2111.80664    9.73830 2111.80664   39.38298  795.12500  766.12500  738.75000  710.87500  -13.29756 4810.38867   56.12315  105.84007
 2111.73047    9.73785 2111.73047   39.10235  795.25000  766.25000  738.87500  711.25000  -13.19761 4810.46191   56.16298  105.85411
 2111.65430    9.73587 2111.65430   39.09282  795.37500  766.12500  738.75000  711.12500  -12.89926 4810.72266   56.18935  105.86816
 2111.57812    9.73075 2111.57812   39.30621  795.25000  766.00000  738.87500  711.00000  -12.47173 4811.10645   56.19830  105.88222
 2111.50195    9.72243 2111.50195   39.58402  795.25000  766.00000  738.75000  711.12500  -12.56357 4810.96777   56.19152  105.89626
 2111.42578    9.71340 2111.42578   39.79040  795.25000  766.12500  738.75000  711.50000  -13.75430 4809.72656   56.17427  105.91031
 2111.34961    9.70739 2111.34961   39.91558  795.25000  766.12500  739.00000  711.37500  -15.83899 4807.58789   56.15076  105.92435
 2111.27344    9.70826 2111.27344   40.01338  795.37500  766.00000  739.25000  712.50000  -18.37400 4804.98926   56.12357  105.93837
 2111.19727    9.71623 2111.19678   40.14872  795.50000  766.37500  739.12500  711.37500  -21.08066 4802.20410   56.09475  105.95239
 2111.12109    9.72717 2111.12061   40.33089  795.25000  766.37500  739.12500  711.37500  -23.58163 4799.60645   56.06710  105.96642
 2111.04492    9.73517 2111.04443   40.54859  795.37500  766.37500  739.12500  711.25000  -25.60406 4797.46680   56.04668  105.98042
 2110.96875    9.73504 2110.96826   40.82864  795.50000  766.37500  739.00000  711.25000  -26.87734 4796.06152   56.03656  105.99443
 2110.89258    9.72628 2110.89209   41.16434  795.25000  766.12500  738.75000  711.12500  -27.37794 4795.42188   56.03209  106.00844
 2110.81641    9.71281 2110.81592   41.57805  795.12500  766.00000  738.50000  711.12500  -27.56739 4795.09082   56.03108  106.02245
 2110.73975    9.70118 2110.73975   42.15163  795.25000  766.00000  738.62500  711.12500  -28.25366 4794.26270   56.04060  106.03645
 2110.66357    9.69622 2110.66357   43.03962  795.25000  766.00000  739.00000  711.25000  -29.82016 4792.54883   56.06548  106.05048
 2110.58740    9.70081 2110.58740   44.31697  795.12500  766.00000  738.87500  711.50000  -31.55419 4790.65918   56.09606  106.06450
 2110.51123    9.71419 2110.51123   45.85144  795.00000  766.12500  738.87500  711.37500  -31.85573 4790.19727   56.11564  106.07852
 2110.43506    9.73160 2110.43506   47.38544  795.25000  766.12500  739.12500  711.25000  -29.37387 4792.52344   56.11841  106.09256
 2110.35889    9.74637 2110.35889   48.63888  795.37500  766.25000  739.25000  711.12500  -24.10825 4797.65039   56.11791  106.10658
 2110.28271    9.75419 2110.28271   49.38512  795.50000  766.50000  739.12500  711.25000  -17.49000 4804.16016   56.13403  106.12062
 2110.20654    9.75387 2110.20654   49.58856  795.50000  766.50000  739.00000  711.37500  -11.64345 4809.93262   56.17080  106.13466
 2110.13037    9.74749 2110.13037   49.30622  795.62500  766.25000  738.87500  711.25000   -8.24402 4813.28809   56.21148  106.14871
 2110.05420    9.73857 2110.05420   48.67641  795.62500  766.12500  739.00000  711.37500   -7.51750 4813.98926   56.23476  106.16278
 2109.97803    9.73051 2109.97754   47.89401  795.50000  766.12500  739.00000  711.37500   -7.87448 4813.61523   56.22464  106.17683
 2109.90186    9.72580 2109.90137   47.02846  795.37500  766.25000  739.12500  711.37500   -7.15455 4814.32520   56.17648  106.19087
 2109.82568    9.72501 2109.82520   45.95853  795.50000  766.37500  739.25000  711.37500   -4.19404 4817.28223   56.10331  106.20490
 2109.74951    9.72765 2109.74902   44.56848  795.75000  766.62500  739.50000  712.62500   -0.06764 4821.41602   56.02717  106.21890
 2109.67334    9.73196 2109.67334   42.93919  795.87500  766.75000  739.50000  713.00000    2.59281 4824.09277   55.96191  106.23289
 2109.59717    9.73702 2109.59668   41.24514  796.00000  766.75000  739.50000  713.12500    1.11544 4822.62695   55.90858  106.24687
 2109.52100    9.74087 2109.52051   39.69238  795.75000  766.50000  739.50000  712.75000   -5.35526 4816.14453   55.89235  106.26085
 2109.44482    9.74195 2109.44434   38.47687  795.50000  766.25000  739.25000  711.37500  -14.91606 4806.53613   55.97698  106.27484
 2109.36816    9.73964 2109.36816   37.67467  795.12500  766.12500  738.75000  711.12500  -23.78004 4797.58691   56.20512  106.28889
 2109.29199    9.73501 2109.29199   37.29455  795.25000  766.00000  738.62500  711.00000  -28.06513 4793.19336   56.52244  106.30302
 2109.21582    9.73054 2109.21582   37.24178  795.37500  766.00000  738.75000  710.87500  -25.90446 4795.24902   56.79603  106.31721
 2109.13965    9.72891 2109.13965   37.39832  795.25000  765.87500  738.75000  710.87500  -18.45269 4802.62207   56.93249  106.33145
 2109.06348    9.73109 2109.06348   37.73618  795.12500  766.00000  738.62500  710.75000   -9.05354 4811.97754   56.94799  106.34569
 2108.98730    9.73641 2108.98730   38.34501  795.12500  766.00000  738.62500  710.75000   -1.84085 4819.17676   56.92285  106.35992
 2108.91113    9.74316 2108.91113   39.21715  795.12500  765.87500  738.62500  710.75000   -0.04943 4820.96582   56.88276  106.37415
 2108.83496    9.74877 2108.83496   40.20629  795.25000  765.87500  738.50000  710.62500   -4.33194 4816.66797   56.76982  106.38834
 2108.75879    9.75165 2108.75830   41.14545  795.00000  765.87500  738.50000  710.62500  -12.86663 4808.08789   56.55013  106.40247
 2108.68262    9.75117 2108.68262   41.90337  795.00000  765.87500  738.25000  710.62500  -22.76844 4798.10645   56.29348  106.41655
 2108.60645    9.74816 2108.60645   42.37329  795.00000  765.75000  738.25000  710.62500  -31.28478 4789.48047   56.12244  106.43057
 2108.53027    9.74287 2108.53027   42.51443  794.87500  765.62500  738.25000  710.50000  -37.02603 4783.60742   56.09742  106.44460
 2108.45410    9.73702 2108.45410   42.27192  794.75000  765.50000  738.25000  710.50000  -40.33112 4780.16016   56.18266  106.45865
