~Version ---------------------------------------------------
VERS.   2.0 : CWLS log ASCII Standard -VERSION 2.0
WRAP.    NO : One line per depth step
DLM . SPACE : Column Data Section Delimiter
~Well ------------------------------------------------------
STRT.m         2656.86523 : START DEPTH
STOP.m         1480.87085 : STOP DEPTH
STEP.m           -0.07617 : STEP
NULL.             -999.25 : NULL VALUE
COMP.           PETROBRAS : COMPANY
WELL.       3-BRSA-19-RJS : WELL
FLD .              BS-500 : FIELD
LOC .                     : LOCATION
PROV.                     : PROVINCE
CNTY.                     : COUNTY
STAT.                     : STATE
CTRY.                     : COUNTRY
SRVC.                     : SERVICE COMPANY
DATE. 2004-06-30 00:00:00 : DATE
UWI .         74316019025 : UNIQUE WELL ID
API .         74316019025 : API NUMBER
~Curve Information -----------------------------------------
DEPT.m      : None
SPD .m/min  : None
DEPM.m      : None
GR  .gAPI   : None
S024.us     : None
S023.us     : None
S022.us     : None
S021.us     : None
TEN .lbf    : None
TTEN.lbf    : None
DT  .us/ft  : None
TT  .ms     : None
~Params ----------------------------------------------------
PROD   .                                  : 
PROG   .                         ['HOIS'] : 
RUN    .                           ['01'] : 
DESCENT.                               [] : 
VERSION.                                  : 
LINEAGE.       Python-converted from DLIS : 
ORFILE . ../inputs/3-brsa-19-rjs_mac.dlis : 
~Other -----------------------------------------------------
~ASCII -----------------------------------------------------
# ...
 2187.39697    9.73879 2187.39697   36.06369  797.37500  769.75000  740.75000  713.75000   37.73035 4944.60547   56.27008   91.71431
 2187.32080    9.74800 2187.32080   36.48869  797.50000  769.75000  740.62500  713.62500   34.07656 4941.12793   56.19719   91.72835
 2187.24463    9.75031 2187.24463   37.09254  797.62500  769.50000  740.75000  713.62500   29.25119 4936.45410   56.20939   91.74240
 2187.16846    9.74405 2187.16846   37.64820  797.75000  769.75000  740.87500  713.87500   23.74362 4931.06250   56.22270   91.75645
 2187.09229    9.73211 2187.09229   37.91617  797.50000  769.62500  740.87500  714.00000   16.95748 4924.35059   56.21030   91.77051
 2187.01611    9.72004 2187.01611   37.77251  797.50000  769.50000  740.87500  714.00000    8.40073 4915.81543   56.20370   91.78456
 2186.93994    9.71359 2186.93994   37.26333  797.50000  769.50000  740.75000  713.87500   -2.51872 4904.85156   56.21949   91.79861
 2186.86377    9.71335 2186.86377   36.55550  797.25000  769.37500  740.75000  714.00000  -16.71609 4890.52441   56.24135   91.81268
 2186.78760    9.71594 2186.78711   35.90523  797.37500  769.25000  740.75000  713.87500  -33.53651 4873.47461   56.25711   91.82674
 2186.71143    9.71584 2186.71143   35.44721  797.37500  769.12500  740.62500  713.75000  -50.29346 4856.39062   56.26750   91.84081
 2186.63525    9.70913 2186.63525   35.24703  797.37500  769.37500  740.87500  713.87500  -63.79807 4842.48633   56.27554   91.85487
 2186.55908    9.69584 2186.55908   35.32745  797.50000  769.62500  740.87500  714.12500  -72.07692 4833.77344   56.28167   91.86894
 2186.48291    9.68008 2186.48291   35.64972  797.62500  769.75000  740.87500  713.62500  -74.61487 4830.80566   56.28127   91.88301
 2186.40674    9.66801 2186.40625   36.14993  797.50000  769.37500  740.75000  713.50000  -71.88132 4833.14258   56.27390   91.89708
 2186.33057    9.66393 2186.33008   36.73445  797.62500  769.62500  740.62500  713.75000  -64.91510 4839.76270   56.27084   91.91115
 2186.25439    9.66825 2186.25391   37.32445  797.62500  769.87500  740.62500  713.87500  -54.44730 4849.94824   56.27976   91.92522
 2186.17773    9.67744 2186.17773   37.86430  797.50000  769.25000  740.50000  713.75000  -41.75220 4862.42676   56.28886   91.93929
 2186.10156    9.68571 2186.10156   38.25557  797.50000  769.00000  740.50000  713.62500  -28.86663 4875.16602   56.28452   91.95335
 2186.02539    9.68782 2186.02539   38.36259  797.00000  769.00000  740.50000  713.50000  -17.81814 4886.12695   56.28217   91.96742
 2185.94922    9.68238 2185.94922   38.06644  797.25000  769.37500  740.50000  713.50000  -10.03806 4893.86328   56.30525   91.98151
 2185.87305    9.67142 2185.87305   37.45055  797.25000  769.50000  740.62500  713.75000   -5.91472 4897.96875   56.32191   91.99559
 2185.79688    9.66182 2185.79688   36.77386  797.25000  769.37500  740.62500  713.87500   -3.95530 4899.92480   56.31070   92.00966
 2185.72070    9.65952 2185.72070   36.23166  797.12500  769.25000  740.62500  713.62500   -1.59130 4902.29492   56.38612   92.02376
 2185.64453    9.66753 2185.64453   35.91274  797.25000  769.25000  740.50000  713.50000    1.97780 4905.88086   56.76306   92.03795
 2185.56836    9.68357 2185.56836   35.71420  797.37500  769.50000  740.50000  713.62500    4.49869 4908.42383   57.64895   92.05237
 2185.49219    9.70147 2185.49219   35.49072  797.62500  769.75000  740.75000  713.87500    3.19090 4907.12695   59.12263   92.06714
 2185.41602    9.71362 2185.41602   35.18404  797.50000  769.62500  740.37500  713.37500   -4.01564 4899.89648   61.10467   92.08241
 2185.33984    9.71479 2185.33984   34.84235  796.62500  767.00000  738.87500  713.50000  -16.90402 4886.92480   63.43756   92.09828
 2185.26367    9.70488 2185.26367   34.55846  802.37500  771.87500  741.75000  710.12500  -30.55226 4873.12695   65.88503   92.11475
 2185.18750    9.68860 2185.18701   34.43584  794.25000  788.00000  746.87500  714.75000  -36.98902 4866.49805   68.03529   92.13176
 2185.11133    9.67316 2185.11084   34.57734  798.25000  771.50000  745.62500  722.12500  -32.41735 4870.87598   69.38567   92.14911
 2185.03516    9.66513 2185.03467   34.98920  811.62500  783.00000  763.12500  734.12500  -18.84418 4884.29590   69.65953   92.16652
 2184.95898    9.66859 2184.95850   35.58141  828.12500  788.25000  881.00000  732.25000   -2.71881 4900.32812   68.90508   92.18375
 2184.88232    9.68357 2184.88232   36.25244  797.50000  771.00000  742.00000  714.25000    9.28861 4912.29883   67.38115   92.20059
 2184.80615    9.70693 2184.80615   36.93690  803.75000  774.87500  747.12500  717.62500   13.94889 4916.96191   65.36008   92.21693
 2184.72998    9.73109 2184.72998   37.53636  803.37500  773.62500  747.12500  719.25000   12.76737 4915.80371   63.00777   92.23270
 2184.65381    9.74856 2184.65381   37.94278  803.50000  773.87500  746.62500  721.25000    8.91506 4911.98730   60.56217   92.24783
 2184.57764    9.75470 2184.57764   38.07246  803.62500  773.75000  746.75000  718.00000    5.62251 4908.73828   58.43779   92.26245
 2184.50146    9.74936 2184.50146   37.89938  803.62500  774.00000  746.87500  718.25000    4.52094 4907.68652   57.01635   92.27670
 2184.42529    9.73639 2184.42529   37.48191  803.87500  774.12500  746.75000  718.25000    4.82017 4908.03711   56.37331   92.29079
 2184.34912    9.72269 2184.34912   36.88957  804.00000  774.12500  747.00000  718.50000    3.93610 4907.19434   56.27718   92.30486
 2184.27295    9.71433 2184.27295   36.16530  803.87500  774.12500  746.87500  718.25000    1.75929 4905.04102   56.39756   92.31895
 2184.19678    9.71420 2184.19678   35.45050  803.87500  773.87500  746.87500  718.37500    0.30924 4903.60547   56.51198   92.33308
 2184.12061    9.72170 2184.12061   34.92490  803.62500  774.00000  746.87500  718.50000    0.99533 4904.32324   56.58114   92.34723
 2184.04443    9.73317 2184.04443   34.69669  803.87500  774.12500  746.87500  718.62500    3.75671 4907.16113   56.63591   92.36139
 2183.96826    9.74398 2183.96777   34.71367  803.87500  774.00000  747.00000  718.50000    6.75888 4910.29297   56.69290   92.37556
 2183.89209    9.74973 2183.89160   34.81517  803.87500  774.00000  747.25000  718.75000    7.36260 4911.06348   56.75031   92.38976
 2183.81592    9.74945 2183.81543   34.81458  803.87500  774.37500  747.25000  718.75000    3.40550 4907.26953   56.79047   92.40396
 2183.73975    9.74335 2183.73926   34.63538  803.87500  774.37500  747.25000  718.75000   -6.08332 4897.88867   56.80020   92.41815
 2183.66357    9.73476 2183.66309   34.30259  804.00000  774.37500  747.37500  718.75000  -20.17548 4883.80957   56.78673   92.43236
 2183.58740    9.72771 2183.58691   33.96963  804.00000  774.37500  747.25000  718.75000  -35.19748 4868.68945   56.77042   92.44655
 2183.51074    9.72523 2183.51074   33.84997  804.12500  774.75000  747.25000  718.75000  -46.09708 4857.60059   56.76373   92.46074
 2183.43457    9.72759 2183.43457   34.04256  804.00000  774.37500  747.12500  718.75000  -48.74922 4854.71582   56.76022   92.47493
 2183.35840    9.73255 2183.35840   34.46789  804.12500  774.25000  747.12500  718.75000  -42.29961 4860.94434   56.74277   92.48911
 2183.28223    9.73582 2183.28223   34.96348  804.12500  774.37500  747.12500  718.75000  -29.60766 4873.46582   56.70124   92.50328
 2183.20605    9.73428 2183.20605   35.47303  804.00000  774.37500  747.25000  718.87500  -15.48675 4887.48145   56.64484   92.51744
 2183.12988    9.72793 2183.12988   36.04827  804.00000  774.37500  747.25000  719.00000   -4.29130 4898.62891   56.59261   92.53159
 2183.05371    9.71969 2183.05371   36.68723  804.12500  774.50000  747.37500  717.75000    1.92472 4904.83203   56.55141   92.54573
 2182.97754    9.71329 2182.97754   37.32034  804.12500  774.62500  747.62500  720.50000    3.18173 4906.08984   56.51525   92.55986
 2182.90137    9.71181 2182.90137   37.81281  804.12500  774.62500  746.12500  731.87500    0.58002 4903.48340   56.47559   92.57397
 2182.82520    9.71602 2182.82520   38.06506  804.25000  774.75000  747.37500  719.00000   -3.81234 4899.07422   56.42169   92.58809
