~Version ---------------------------------------------------
VERS.   2.0 : CWLS log ASCII Standard -VERSION 2.0
WRAP.    NO : One line per depth step
DLM . SPACE : Column Data Section Delimiter
~Well ------------------------------------------------------
STRT.m         2656.86523 : START DEPTH
STOP.m         1480.87085 : STOP DEPTH
STEP.m           -0.07617 : STEP
NULL.             -999.25 : NULL VALUE
COMP.           PETROBRAS : COMPANY
WELL.       3-BRSA-19-RJS : WELL
FLD .              BS-500 : FIELD
LOC .                     : LOCATION
PROV.                     : PROVINCE
CNTY.                     : COUNTY
STAT.                     : STATE
CTRY.                     : COUNTRY
SRVC.                     : SERVICE COMPANY
DATE. 2004-06-30 00:00:00 : DATE
UWI .         74316019025 : UNIQUE WELL ID
API .         74316019025 : API NUMBER
~Curve Information -----------------------------------------
DEPT.m      : None
SPD .m/min  : None
DEPM.m      : None
GR  .gAPI   : None
S024.us     : None
S023.us     : None
S022.us     : None
S021.us     : None
TEN .lbf    : None
TTEN.lbf    : None
DT  .us/ft  : None
TT  .ms     : None
~Params ----------------------------------------------------
PROD   .                                  : 
PROG   .                         ['HOIS'] : 
RUN    .                           ['01'] : 
DESCENT.                               [] : 
VERSION.                                  : 
LINEAGE.       Python-converted from DLIS : 
ORFILE . ../inputs/3-brsa-19-rjs_mac.dlis : 
~Other -----------------------------------------------------
~ASCII -----------------------------------------------------
# ...
 1508.76001 -999.25000 -999.25000   30.32193  842.00000  813.87500  785.87500  760.00000 -999.25000 -999.25000   54.42929  219.16675
 1508.68384 -999.25000 -999.25000   31.00366  837.75000  816.00000  784.75000  759.75000 -999.25000 -999.25000   54.10958  219.18027
 1508.60767 -999.25000 -999.25000   31.50285  840.00000  816.00000  784.37500  760.00000 -999.25000 -999.25000   53.92532  219.19376
 1508.53149 -999.25000 -999.25000   31.72826  845.25000  813.62500  784.37500  760.00000 -999.25000 -999.25000   53.87225  219.20724
 1508.45532 -999.25000 -999.25000   31.62179  842.62500  814.50000  786.37500  760.00000 -999.25000 -999.25000   53.91569  219.22070
 1508.37891 -999.25000 -999.25000   31.17576  840.12500  814.00000  786.62500  759.12500 -999.25000 -999.25000   53.99445  219.23422
 1508.30273 -999.25000 -999.25000   30.47780  840.50000  815.75000  784.62500  760.00000 -999.25000 -999.25000   54.07264  219.24774
 1508.22656 -999.25000 -999.25000   29.67308  840.37500  816.00000  784.00000  759.62500 -999.25000 -999.25000   54.16609  219.26126
 1508.15039 -999.25000 -999.25000   28.96867  841.37500  814.75000  785.00000  760.00000 -999.25000 -999.25000   54.29363  219.27484
 1508.07422 -999.25000 -999.25000   28.65484  842.25000  813.12500  784.37500  760.87500 -999.25000 -999.25000   54.43438  219.28845
 1507.99805 -999.25000 -999.25000   28.75466  840.87500  815.50000  785.12500  759.75000 -999.25000 -999.25000   54.54682  219.30209
 1507.92188 -999.25000 -999.25000   29.06736  840.00000  814.50000  787.37500  758.75000 -999.25000 -999.25000   54.60951  219.31577
 1507.84570 -999.25000 -999.25000   29.31492  841.62500  814.75000  784.37500  760.50000 -999.25000 -999.25000   54.63526  219.32941
 1507.76929 -999.25000 -999.25000   29.27642  840.00000  816.00000  784.00000  761.25000 -999.25000 -999.25000   54.63472  219.34308
 1507.69312 -999.25000 -999.25000   28.78947  840.50000  813.12500  785.87500  758.12500 -999.25000 -999.25000   54.59259  219.35672
 1507.61694 -999.25000 -999.25000   27.94163  841.87500  811.75000  788.25000  760.00000 -999.25000 -999.25000   54.50800  219.37033
 1507.54077 -999.25000 -999.25000   26.98571  840.25000  815.37500  784.00000  763.12500 -999.25000 -999.25000   54.41904  219.38394
 1507.46460 -999.25000 -999.25000   26.22089  840.00000  816.00000  785.87500  760.87500 -999.25000 -999.25000   54.35521  219.39755
 1507.38843 -999.25000 -999.25000   25.89389  841.87500  812.37500  789.25000  760.62500 -999.25000 -999.25000   54.29800  219.41113
 1507.31226 -999.25000 -999.25000   26.02436  843.62500  815.75000  788.00000  762.62500 -999.25000 -999.25000   54.21130  219.42468
 1507.23608 -999.25000 -999.25000   26.41346  840.00000  816.00000  787.25000  764.50000 -999.25000 -999.25000   54.09715  219.43820
 1507.15991 -999.25000 -999.25000   26.96149  842.62500  816.00000  789.62500  765.87500 -999.25000 -999.25000   54.00774  219.45169
 1507.08350 -999.25000 -999.25000   27.64769  845.12500  816.00000  791.25000  766.00000 -999.25000 -999.25000   53.97198  219.46518
 1507.00732 -999.25000 -999.25000   28.41040  843.62500  816.00000  791.62500  767.12500 -999.25000 -999.25000   53.94352  219.47867
 1506.93115 -999.25000 -999.25000   29.19181  843.12500  818.25000  791.87500  766.62500 -999.25000 -999.25000   53.86795  219.49216
 1506.85498 -999.25000 -999.25000   29.90757  845.12500  819.50000  793.25000  766.00000 -999.25000 -999.25000   53.74577  219.50558
 1506.77881 -999.25000 -999.25000   30.43386  847.50000  819.37500  792.50000  763.00000 -999.25000 -999.25000   53.60832  219.51898
 1506.70264 -999.25000 -999.25000   30.68023  848.00000  822.37500  792.00000  760.00000 -999.25000 -999.25000   53.47725  219.53235
 1506.62646 -999.25000 -999.25000   30.61039  848.00000  821.62500  790.12500  759.87500 -999.25000 -999.25000   53.35934  219.54568
 1506.55029 -999.25000 -999.25000   30.25531  848.75000  819.75000  786.25000  760.50000 -999.25000 -999.25000   53.28442  219.55902
 1506.47412 -999.25000 -999.25000   29.72637  848.37500  816.62500  785.75000  759.87500 -999.25000 -999.25000   53.33943  219.57236
 1506.39771 -999.25000 -999.25000   29.16270  848.00000  815.87500  787.87500  759.12500 -999.25000 -999.25000   53.59365  219.58575
 1506.32153 -999.25000 -999.25000   28.61350  846.25000  815.25000  784.25000  758.75000 -999.25000 -999.25000   54.00095  219.59924
 1506.24536 -999.25000 -999.25000   28.10564  843.00000  816.00000  784.00000  759.50000 -999.25000 -999.25000   54.46092  219.61285
 1506.16919 -999.25000 -999.25000   27.69272  841.37500  814.50000  784.12500  759.25000 -999.25000 -999.25000   54.91278  219.62659
 1506.09302 -999.25000 -999.25000   27.41037  843.12500  813.00000  784.00000  759.00000 -999.25000 -999.25000   55.30359  219.64041
 1506.01685 -999.25000 -999.25000   27.19235  840.37500  813.12500  784.37500  759.62500 -999.25000 -999.25000   55.55761  219.65430
 1505.94067 -999.25000 -999.25000   26.95957  840.00000  813.75000  784.00000  760.00000 -999.25000 -999.25000   55.62863  219.66821
 1505.86450 -999.25000 -999.25000   26.63818  840.00000  814.00000  784.00000  760.00000 -999.25000 -999.25000   55.53685  219.68210
 1505.78809 -999.25000 -999.25000   26.30492  840.00000  813.37500  785.37500  760.00000 -999.25000 -999.25000   55.34935  219.69592
 1505.71191 -999.25000 -999.25000   26.12869  840.12500  814.00000  786.50000  760.00000 -999.25000 -999.25000   55.11604  219.70972
 1505.63574 -999.25000 -999.25000   26.27074  840.00000  814.62500  785.87500  759.50000 -999.25000 -999.25000 -999.25000 -999.25000
 1505.55957 -999.25000 -999.25000   26.74051  840.00000  815.00000  784.62500  759.75000 -999.25000 -999.25000 -999.25000 -999.25000
 1505.48340 -999.25000 -999.25000   27.38967  841.75000  816.00000  785.62500  759.37500 -999.25000 -999.25000 -999.25000 -999.25000
 1505.40723 -999.25000 -999.25000   27.99820  843.50000  815.87500  786.50000  759.75000 -999.25000 -999.25000 -999.25000 -999.25000
 1505.33105 -999.25000 -999.25000   28.40237  840.12500  813.25000  784.50000  757.50000 -999.25000 -999.25000 -999.25000 -999.25000
 1505.25488 -999.25000 -999.25000   28.54090  841.12500  813.50000  784.00000  757.87500 -999.25000 -999.25000 -999.25000 -999.25000
 1505.17871 -999.25000 -999.25000   28.45174  840.50000  814.00000  784.00000  758.50000 -999.25000 -999.25000 -999.25000 -999.25000
 1505.10229 -999.25000 -999.25000   28.25581  840.12500  812.37500  784.00000  758.12500 -999.25000 -999.25000 -999.25000 -999.25000
 1505.02612 -999.25000 -999.25000   28.04212  840.37500  811.37500  784.00000  757.75000 -999.25000 -999.25000 -999.25000 -999.25000
 1504.94995 -999.25000 -999.25000   27.78975  840.00000  811.50000  784.00000  757.87500 -999.25000 -999.25000 -999.25000 -999.25000
 1504.87378 -999.25000 -999.25000   27.42669  839.62500  812.50000  784.00000  758.75000 -999.25000 -999.25000 -999.25000 -999.25000
 1504.79761 -999.25000 -999.25000   26.94600  840.00000  812.00000  784.00000  759.12500 -999.25000 -999.25000 -999.25000 -999.25000
 1504.72144 -999.25000 -999.25000   26.46224  840.00000  810.25000  784.00000  758.87500 -999.25000 -999.25000 -999.25000 -999.25000
 1504.64526 -999.25000 -999.25000   26.14046  840.00000  811.75000  784.00000  759.37500 -999.25000 -999.25000 -999.25000 -999.25000
 1504.56909 -999.25000 -999.25000   26.08239  840.00000  812.12500  784.00000  759.50000 -999.25000 -999.25000 -999.25000 -999.25000
 1504.49292 -999.25000 -999.25000   26.32010  840.00000  813.62500  784.00000  759.50000 -999.25000 -999.25000 -999.25000 -999.25000
 1504.41650 -999.25000 -999.25000   26.80590  840.00000  813.87500  784.25000  759.75000 -999.25000 -999.25000 -999.25000 -999.25000
 1504.34033 -999.25000 -999.25000   27.42455  840.25000  813.50000  785.00000  760.00000 -999.25000 -999.25000 -999.25000 -999.25000
 1504.26416 -999.25000 -999.25000   28.05348  840.00000  813.75000  784.50000  760.00000 -999.25000 -999.25000 -999.25000 -999.25000
 1504.18799 -999.25000 -999.25000   28.59818  840.12500  814.50000  785.12500  760.12500 -999.25000 -999.25000 -999.25000 -999.25000
