~Version ---------------------------------------------------
VERS.   2.0 : CWLS log ASCII Standard -VERSION 2.0
WRAP.    NO : One line per depth step
DLM . SPACE : Column Data Section Delimiter
~Well ------------------------------------------------------
STRT.m         2656.86523 : START DEPTH
STOP.m         1480.87085 : STOP DEPTH
STEP.m           -0.07617 : STEP
NULL.             -999.25 : NULL VALUE
COMP.           PETROBRAS : COMPANY
WELL.       3-BRSA-19-RJS : WELL
FLD .              BS-500 : FIELD
LOC .                     : LOCATION
PROV.                     : PROVINCE
CNTY.                     : COUNTY
STAT.                     : STATE
CTRY.                     : COUNTRY
SRVC.                     : SERVICE COMPANY
DATE. 2004-06-30 00:00:00 : DATE
UWI .         74316019025 : UNIQUE WELL ID
API .         74316019025 : API NUMBER
~Curve Information -----------------------------------------
DEPT.m      : None
SPD .m/min  : None
DEPM.m      : None
GR  .gAPI   : None
S024.us     : None
S023.us     : None
S022.us     : None
S021.us     : None
TEN .lbf    : None
TTEN.lbf    : None
DT  .us/ft  : None
TT  .ms     : None
~Params ----------------------------------------------------
PROD   .                                  : 
PROG   .                         ['HOIS'] : 
RUN    .                           ['01'] : 
DESCENT.                               [] : 
VERSION.                                  : 
LINEAGE.       Python-converted from DLIS : 
ORFILE . ../inputs/3-brsa-19-rjs_mac.dlis : 
~Other -----------------------------------------------------
~ASCII -----------------------------------------------------
# ...
 2038.65479    9.75601 2038.65454   45.01217  795.75000  766.50000  739.25000  711.12500  -62.04592 4678.28906   57.70482  119.42854
 2038.57861    9.73290 2038.57837   46.12916  795.75000  766.50000  739.12500  711.12500  -59.83344 4680.21973   57.65902  119.44296
 2038.50244    9.71247 2038.50220   47.50841  795.62500  766.50000  739.25000  711.12500  -55.46708 4684.32324   57.49306  119.45734
 2038.42627    9.70280 2038.42603   48.80039  795.62500  766.37500  739.12500  711.00000  -50.01641 4689.53418   57.31438  119.47166
 2038.35010    9.70778 2038.34985   49.63596  795.62500  766.50000  739.12500  711.00000  -44.37251 4694.96191   57.17033  119.48595
 2038.27393    9.72516 2038.27368   49.70219  795.62500  766.50000  739.12500  711.00000  -39.43675 4699.70215   57.02193  119.50020
 2038.19775    9.74779 2038.19751   48.93819  795.62500  766.50000  739.12500  711.00000  -36.11057 4702.84863   56.82672  119.51440
 2038.12134    9.76748 2038.12134   47.66877  795.75000  766.50000  739.12500  711.00000  -35.52054 4703.26562   56.61529  119.52856
 2038.04517    9.77741 2038.04492   46.41103  795.62500  766.37500  739.12500  711.00000  -38.96034 4699.64648   56.46498  119.54268
 2037.96899    9.77549 2037.96875   45.57537  795.62500  766.37500  739.12500  711.00000  -46.75312 4691.64844   56.41051  119.55678
 2037.89282    9.76453 2037.89258   45.40049  795.50000  766.37500  739.12500  711.00000  -56.60415 4681.54980   56.41268  119.57088
 2037.81665    9.75147 2037.81641   45.85760  795.50000  766.50000  739.12500  711.00000  -63.70990 4674.14941   56.42035  119.58499
 2037.74048    9.74250 2037.74048   46.67519  795.62500  766.37500  739.12500  711.00000  -64.28737 4673.24316   56.42010  119.59909
 2037.66431    9.74093 2037.66406   47.40824  795.75000  766.50000  739.12500  711.00000  -57.54106 4679.65039   56.41751  119.61320
 2037.58813    9.74445 2037.58789   47.75510  795.62500  766.50000  739.12500  711.00000  -45.57590 4691.29492   56.41403  119.62730
 2037.51172    9.74858 2037.51172   47.64260  795.75000  766.50000  739.12500  711.12500  -32.57191 4704.01953   56.40976  119.64140
 2037.43555    9.74876 2037.43530   47.18964  795.62500  766.50000  739.12500  711.12500  -22.63649 4713.72266   56.40529  119.65550
 2037.35938    9.74274 2037.35913   46.61299  795.75000  766.50000  739.12500  711.12500  -18.16753 4717.99805   56.39783  119.66960
 2037.28320    9.73205 2037.28320   46.18254  795.75000  766.50000  739.25000  711.12500  -19.33912 4716.65527   56.38476  119.68370
 2037.20703    9.72144 2037.20703   46.01018  795.62500  766.37500  739.25000  711.00000  -23.57701 4712.25098   56.36816  119.69780
 2037.13086    9.71681 2037.13086   46.06263  795.62500  766.50000  739.12500  711.00000  -26.94872 4708.71777   56.34814  119.71188
 2037.05469    9.72166 2037.05444   46.16394  795.50000  766.37500  739.00000  711.00000  -27.05615 4708.46191   56.33309  119.72597
 2036.97852    9.73644 2036.97827   46.15674  795.62500  766.37500  739.00000  710.87500  -24.45231 4710.94141   56.34592  119.74005
 2036.90234    9.75817 2036.90210   46.01096  795.50000  766.25000  739.00000  710.87500  -21.12088 4714.17383   56.34267  119.75414
 2036.82593    9.78152 2036.82593   45.78468  795.50000  766.25000  738.87500  710.87500  -19.97239 4715.23926   56.28080  119.76820
 2036.74976    9.80001 2036.74976   45.54856  795.50000  766.37500  739.00000  711.00000  -23.03216 4712.09180   56.32969  119.78229
 2036.67358    9.80831 2036.67358   45.27766  795.50000  766.25000  738.87500  710.87500  -29.76775 4705.24902   56.74599  119.79646
 2036.59741    9.80307 2036.59741   44.86868  795.37500  766.25000  739.00000  710.87500  -37.88271 4696.99512   57.67976  119.81088
 2036.52124    9.78602 2036.52124   44.24403  795.50000  766.12500  739.12500  711.00000  -44.34375 4690.36621   59.16492  119.82568
 2036.44507    9.76330 2036.44482   43.38457  795.50000  766.37500  738.62500  710.87500  -46.23467 4688.29004   61.00673  119.84093
 2036.36890    9.74248 2036.36865   42.41821  794.62500  764.75000  738.00000  709.75000  -42.26251 4692.08203   62.76611  119.85663
 2036.29272    9.72915 2036.29248   41.63344  798.62500  767.00000  741.12500  710.12500  -33.38813 4700.80078   64.06027  119.87263
 2036.21655    9.72542 2036.21631   41.27207  818.62500  788.87500  755.87500  716.00000  -22.09663 4711.97559   64.74286  119.88882
 2036.14014    9.72974 2036.14014   41.33745  798.25000  770.00000  742.62500  715.12500  -11.18546 4722.81445   64.79750  119.90501
 2036.06396    9.73727 2036.06396   41.63840  807.25000  779.75000  756.00000  719.75000   -2.95591 4731.00684   64.34660  119.92111
 2035.98779    9.74387 2035.98779   41.93071  821.37500  788.00000  764.37500  729.37500    1.18456 4735.12988   63.46869  119.93698
 2035.91162    9.74587 2035.91162   42.07705  797.00000  768.87500  746.12500  734.00000    1.09766 4735.02344   62.06272  119.95250
 2035.83545    9.74205 2035.83521   42.06583  801.50000  772.00000  739.87500  721.50000   -1.95269 4731.93848   60.24475  119.96756
 2035.75928    9.73368 2035.75903   42.03593  802.37500  773.25000  742.62500  714.62500   -4.75879 4729.08203   58.46134  119.98218
 2035.68311    9.72488 2035.68286   42.15048  802.12500  772.62500  746.00000  718.12500   -4.25221 4729.53809   57.16261  119.99646
 2035.60693    9.71936 2035.60669   42.45696  802.12500  772.75000  745.75000  717.25000    0.06096 4733.82715   56.54088  120.01060
 2035.53076    9.72050 2035.53052   42.96911  802.12500  772.75000  745.62500  717.50000    6.22151 4740.01172   56.44198  120.02470
 2035.45435    9.72776 2035.45435   43.67682  802.12500  772.75000  745.62500  717.37500   11.79056 4745.65625   56.48716  120.03883
 2035.37817    9.73776 2035.37817   44.51844  802.00000  772.75000  745.50000  717.37500   15.90100 4749.88477   56.44337  120.05295
 2035.30200    9.74554 2035.30200   45.42229  802.12500  772.75000  745.50000  717.37500   19.34099 4753.47070   56.37452  120.06703
 2035.22583    9.74781 2035.22559   46.32846  802.00000  772.62500  745.37500  717.37500   23.02434 4757.31543   56.35282  120.08113
 2035.14966    9.74360 2035.14941   47.14644  802.12500  772.62500  745.62500  717.50000   27.27088 4761.73047   56.35369  120.09521
 2035.07349    9.73550 2035.07324   47.78410  802.00000  772.62500  745.37500  717.50000   30.15060 4764.77637   56.35657  120.10931
 2034.99731    9.72809 2034.99707   48.13784  802.00000  772.75000  745.75000  717.37500   28.30484 4763.08008   56.35807  120.12340
 2034.92114    9.72483 2034.92090   48.09913  802.00000  772.62500  745.50000  717.37500   19.90879 4754.79199   56.36082  120.13750
 2034.84473    9.72598 2034.84473   47.62606  802.00000  772.75000  745.50000  717.37500    6.54864 4741.48047   56.36433  120.15158
 2034.76855    9.72917 2034.76855   46.86114  801.87500  772.75000  745.50000  717.37500   -7.09915 4727.81543   56.36798  120.16568
 2034.69238    9.73135 2034.69238   46.03458  802.12500  772.75000  745.62500  717.37500  -16.16080 4718.68848   56.37299  120.17976
 2034.61621    9.73127 2034.61597   45.46806  801.87500  772.62500  745.50000  717.37500  -18.32517 4716.44043   56.37888  120.19386
 2034.54004    9.73056 2034.53979   45.44910  802.12500  772.75000  745.50000  717.25000  -15.55206 4719.13867   56.38592  120.20796
 2034.46387    9.73025 2034.46362   46.02367  802.12500  772.75000  745.62500  717.50000  -11.98427 4722.64941   56.39462  120.22206
 2034.38770    9.73165 2034.38745   46.92471  802.12500  772.75000  745.50000  717.62500  -10.71447 4723.87109   56.39700  120.23616
 2034.31152    9.73487 2034.31128   47.78265  802.12500  772.75000  745.62500  717.50000  -11.85347 4722.67773   56.37997  120.25024
 2034.23535    9.73837 2034.23511   48.26864  802.00000  772.75000  745.75000  717.50000  -13.29364 4721.16992   56.34512  120.26433
 2034.15894    9.73978 2034.15894   48.24615  802.12500  772.87500  745.62500  717.62500  -12.88874 4721.49805   56.30975  120.27841
 2034.08276    9.73752 2034.08276   47.76296  802.00000  773.00000  745.62500  717.62500  -10.48741 4723.82324   56.28368  120.29248
