~Version ---------------------------------------------------
VERS.   2.0 : CWLS log ASCII Standard -VERSION 2.0
WRAP.    NO : One line per depth step
DLM . SPACE : Column Data Section Delimiter
~Well ------------------------------------------------------
STRT.m         2656.86523 : START DEPTH
STOP.m         1480.87085 : STOP DEPTH
STEP.m           -0.07617 : STEP
NULL.             -999.25 : NULL VALUE
COMP.           PETROBRAS : COMPANY
WELL.       3-BRSA-19-RJS : WELL
FLD .              BS-500 : FIELD
LOC .                     : LOCATION
PROV.                     : PROVINCE
CNTY.                     : COUNTY
STAT.                     : STATE
CTRY.                     : COUNTRY
SRVC.                     : SERVICE COMPANY
DATE. 2004-06-30 00:00:00 : DATE
UWI .         74316019025 : UNIQUE WELL ID
API .         74316019025 : API NUMBER
~Curve Information -----------------------------------------
DEPT.m      : None
SPD .m/min  : None
DEPM.m      : None
GR  .gAPI   : None
S024.us     : None
S023.us     : None
S022.us     : None
S021.us     : None
TEN .lbf    : None
TTEN.lbf    : None
DT  .us/ft  : None
TT  .ms     : None
~Params ----------------------------------------------------
PROD   .                                  : 
PROG   .                         ['HOIS'] : 
RUN    .                           ['01'] : 
DESCENT.                               [] : 
VERSION.                                  : 
LINEAGE.       Python-converted from DLIS : 
ORFILE . ../inputs/3-brsa-19-rjs_mac.dlis : 
~Other -----------------------------------------------------
~ASCII -----------------------------------------------------
# ...
 1885.26416    9.96793 1885.26416   41.18689  796.00000  767.12500  740.00000  713.00000  -58.46801 4498.08496   55.85806  147.72678
 1885.18799    9.96697 1885.18799   41.42314  796.12500  767.12500  740.00000  713.12500  -72.60463 4483.64648   55.84575  147.74075
 1885.11182    9.95478 1885.11182   41.59962  796.25000  767.25000  740.12500  713.12500  -86.48166 4469.41699   55.83027  147.75470
 1885.03564    9.93476 1885.03540   41.57579  796.25000  767.25000  740.12500  713.12500  -94.04379 4461.47266   55.82773  147.76868
 1884.95947    9.91289 1884.95923   41.25713  796.25000  767.37500  740.12500  713.25000  -90.80132 4464.34082   55.84767  147.78262
 1884.88330    9.89564 1884.88306   40.63288  796.25000  767.25000  740.12500  713.12500  -76.89789 4477.92188   55.85162  147.79660
 1884.80713    9.88842 1884.80688   39.77319  796.25000  767.25000  740.12500  713.12500  -57.36512 4497.21094   55.79150  147.81055
 1884.73096    9.89309 1884.73071   38.71933  796.25000  767.25000  740.12500  713.12500  -39.73924 4514.67090   55.67405  147.82446
 1884.65454    9.90687 1884.65454   37.55412  796.25000  767.25000  740.12500  713.25000  -30.07784 4524.21289   55.59867  147.83835
 1884.57837    9.92315 1884.57837   36.47040  796.37500  767.37500  740.25000  713.25000  -29.77945 4524.39941   55.78125  147.85229
 1884.50220    9.93517 1884.50220   35.60385  796.37500  767.25000  740.25000  713.37500  -34.64950 4519.39746   56.48969  147.86642
 1884.42603    9.93828 1884.42578   35.01940  796.37500  767.50000  739.87500  712.75000  -39.62128 4514.26465   57.86722  147.88089
 1884.34985    9.93217 1884.34961   34.81266  795.25000  766.12500  738.62500  711.37500  -41.55994 4512.14160   59.85189  147.89587
 1884.27368    9.92227 1884.27344   35.03428  801.37500  772.25000  744.62500  716.50000  -40.24926 4513.25781   62.23416  147.91144
 1884.19751    9.91389 1884.19727   35.66502  793.50000  763.62500  737.75000  711.37500  -37.96417 4515.34375   64.66615  147.92758
 1884.12134    9.91199 1884.12109   36.58874  797.25000  770.75000  741.25000  724.12500  -37.79337 4515.31055   66.74014  147.94427
 1884.04492    9.91839 1884.04492   37.65324  804.12500  773.37500  744.25000  715.87500  -40.89971 4511.98633   68.12036  147.96130
 1883.96875    9.93107 1883.96875   38.72340  820.12500  787.50000  755.00000  725.12500  -45.18645 4507.46582   68.58879  147.97845
 1883.89258    9.94582 1883.89258   39.69193  930.62500  788.75000  765.25000  739.37500  -46.80154 4505.61328   68.08490  147.99548
 1883.81641    9.95859 1883.81616   40.50013  798.62500  771.00000  742.50000  715.37500  -42.89642 4509.29883   66.72438  148.01215
 1883.74023    9.96647 1883.73999   41.09332  803.25000  773.25000  746.00000  719.50000  -33.57957 4518.43750   64.71671  148.02832
 1883.66406    9.96790 1883.66382   41.47401  803.75000  774.37500  747.37500  719.00000  -22.33391 4529.55371   62.32961  148.04391
 1883.58789    9.96337 1883.58765   41.68719  803.25000  774.25000  747.25000  719.12500  -13.91561 4537.88086   59.94514  148.05890
 1883.51172    9.95502 1883.51147   41.70764  803.37500  774.12500  747.25000  719.00000  -11.53209 4540.18359   57.96523  148.07339
 1883.43555    9.94515 1883.43530   41.54908  803.50000  774.25000  747.25000  719.00000  -15.42231 4536.19727   56.63565  148.08755
 1883.35913    9.93632 1883.35913   41.29272  803.37500  774.25000  747.25000  719.00000  -23.42487 4528.06250   55.96738  148.10153
 1883.28296    9.93105 1883.28296   41.07246  803.50000  774.25000  747.25000  719.00000  -32.23762 4519.07715   55.75662  148.11548
 1883.20679    9.92926 1883.20654   41.01591  803.50000  774.12500  747.25000  719.00000  -38.91290 4512.19824   55.73018  148.12943
 1883.13062    9.93020 1883.13037   41.16740  803.37500  774.25000  747.12500  719.00000  -41.95840 4508.93457   55.72646  148.14334
 1883.05444    9.93088 1883.05420   41.46530  803.37500  774.25000  747.25000  719.12500  -41.17247 4509.51074   55.72194  148.15729
 1882.97827    9.92866 1882.97803   41.77619  803.37500  774.12500  747.25000  719.00000  -37.48115 4513.01562   55.73113  148.17120
 1882.90210    9.92335 1882.90186   41.97227  803.37500  774.25000  747.37500  719.00000  -32.85905 4517.48047   55.75508  148.18515
 1882.82593    9.91780 1882.82568   42.04555  803.37500  774.25000  747.25000  719.12500  -29.29138 4520.91309   55.78508  148.19910
 1882.74976    9.91564 1882.74951   42.08786  803.37500  774.25000  747.12500  719.00000  -27.88058 4522.19824   55.80971  148.21304
 1882.67334    9.91973 1882.67334   42.21493  803.37500  774.12500  747.25000  719.12500  -27.86749 4522.08398   55.82381  148.22699
 1882.59717    9.92983 1882.59692   42.38296  803.50000  774.12500  747.25000  719.12500  -27.13157 4522.69141   55.83150  148.24097
 1882.52100    9.94162 1882.52075   42.38787  803.37500  774.25000  747.25000  719.12500  -23.40294 4526.29883   55.83842  148.25491
 1882.44482    9.94932 1882.44458   42.06062  803.37500  774.12500  747.25000  719.00000  -16.13150 4533.47656   55.84394  148.26889
 1882.36865    9.94830 1882.36865   41.36139  803.37500  774.12500  747.12500  719.00000   -7.36720 4542.18359   55.84346  148.28284
 1882.29248    9.93697 1882.29248   40.39642  803.37500  774.12500  747.25000  719.12500   -1.01262 4548.51270   55.83096  148.29681
 1882.21631    9.91717 1882.21606   39.38234  803.37500  774.12500  747.25000  719.00000   -0.23422 4549.27539   55.80162  148.31076
 1882.14014    9.89456 1882.13989   38.56442  803.37500  774.12500  747.25000  719.00000   -5.52161 4543.95312   55.76323  148.32471
 1882.06372    9.87468 1882.06372   38.11827  803.37500  774.25000  747.25000  719.00000  -13.97523 4535.42969   55.73405  148.33862
 1881.98755    9.86341 1881.98730   38.11542  803.37500  774.25000  747.25000  717.75000  -21.10044 4528.19922   55.71982  148.35257
 1881.91138    9.86440 1881.91113   38.49636  803.37500  774.12500  747.25000  723.75000  -23.36160 4525.81543   55.70558  148.36649
 1881.83521    9.87732 1881.83521   39.12460  803.50000  774.25000  745.50000  730.25000  -20.31994 4528.73633   55.67374  148.38040
 1881.75903    9.89772 1881.75903   39.87239  803.37500  774.25000  749.75000  718.62500  -14.52818 4534.42285   55.62531  148.39432
 1881.68286    9.91968 1881.68286   40.64160  803.50000  772.87500  756.37500  722.50000   -9.82540 4539.03516   55.58359  148.40820
 1881.60669    9.93611 1881.60645   41.35371  803.62500  778.75000  746.62500  710.75000   -9.40264 4539.37109   55.56712  148.42209
 1881.53052    9.94206 1881.53027   41.83805  801.75000  785.50000  748.62500  715.00000  -14.35993 4534.31641   55.56394  148.43597
 1881.45435    9.93768 1881.45410   41.92115  805.87500  773.75000  738.50000  711.00000  -23.36586 4525.18945   55.54943  148.44986
 1881.37793    9.92694 1881.37793   41.55907  812.75000  777.75000  741.37500  713.12500  -33.67773 4514.72656   55.51835  148.46375
 1881.30176    9.91600 1881.30176   40.86658  802.87500  765.75000  738.87500  713.50000  -41.98765 4506.24121   55.48505  148.47763
 1881.22559    9.91109 1881.22559   40.09105  804.87500  770.12500  740.50000  713.37500  -45.47631 4502.56934   55.46185  148.49149
 1881.14941    9.91481 1881.14941   39.52472  794.50000  766.25000  740.50000  713.50000  -42.01259 4505.86621   55.44577  148.50534
 1881.07324    9.92416 1881.07324   39.33932  797.62500  768.37500  740.37500  713.37500  -31.16813 4516.58789   55.42455  148.51920
 1880.99707    9.93361 1880.99683   39.47740  795.00000  768.62500  740.37500  713.25000  -15.73232 4531.96289   55.39665  148.53305
 1880.92090    9.93567 1880.92065   39.71570  796.62500  768.50000  740.37500  713.37500   -0.61701 4547.08008   55.37667  148.54691
 1880.84473    9.92590 1880.84448   39.92567  796.62500  767.50000  740.25000  713.50000    9.35334 4557.09180   55.37642  148.56073
 1880.76855    9.90575 1880.76831   40.06682  796.50000  767.50000  740.37500  713.37500   11.81238 4559.60156   55.39394  148.57458
 1880.69214    9.88239 1880.69214   40.20543  796.50000  767.50000  740.37500  713.25000    8.06839 4555.89062   55.42128  148.58844
