~Version ---------------------------------------------------
VERS.   2.0 : CWLS log ASCII Standard -VERSION 2.0
WRAP.    NO : One line per depth step
DLM . SPACE : Column Data Section Delimiter
~Well ------------------------------------------------------
STRT.m         2656.86523 : START DEPTH
STOP.m         1480.87085 : STOP DEPTH
STEP.m           -0.07617 : STEP
NULL.             -999.25 : NULL VALUE
COMP.           PETROBRAS : COMPANY
WELL.       3-BRSA-19-RJS : WELL
FLD .              BS-500 : FIELD
LOC .                     : LOCATION
PROV.                     : PROVINCE
CNTY.                     : COUNTY
STAT.                     : STATE
CTRY.                     : COUNTRY
SRVC.                     : SERVICE COMPANY
DATE. 2004-06-30 00:00:00 : DATE
UWI .         74316019025 : UNIQUE WELL ID
API .         74316019025 : API NUMBER
~Curve Information -----------------------------------------
DEPT.m      : None
SPD .m/min  : None
DEPM.m      : None
GR  .gAPI   : None
S024.us     : None
S023.us     : None
S022.us     : None
S021.us     : None
TEN .lbf    : None
TTEN.lbf    : None
DT  .us/ft  : None
TT  .ms     : None
~Params ----------------------------------------------------
PROD   .                                  : 
PROG   .                         ['HOIS'] : 
RUN    .                           ['01'] : 
DESCENT.                               [] : 
VERSION.                                  : 
LINEAGE.       Python-converted from DLIS : 
ORFILE . ../inputs/3-brsa-19-rjs_mac.dlis : 
~Other -----------------------------------------------------
~ASCII -----------------------------------------------------
# ...
 2266.41650    9.55159 2266.41650   43.11253  803.50000  773.62500  746.62500  718.00000   -4.10934 4981.83301   56.12769   77.12152
 2266.34033    9.55613 2266.34033   42.83794  803.50000  773.62500  746.62500  718.12500  -11.02425 4974.85352   56.14296   77.13556
 2266.26416    9.54839 2266.26416   42.57471  803.37500  773.50000  746.50000  718.12500  -16.30002 4969.48926   56.17024   77.14961
 2266.18799    9.52897 2266.18799   42.39078  803.25000  773.50000  746.50000  718.00000  -19.27667 4966.40723   56.17236   77.16365
 2266.11182    9.50447 2266.11182   42.35818  803.37500  773.50000  746.62500  718.00000  -21.21164 4964.35156   56.16421   77.17769
 2266.03564    9.48358 2266.03516   42.53857  803.37500  773.62500  746.62500  718.12500  -23.97421 4961.45312   56.16267   77.19173
 2265.95947    9.47407 2265.95898   42.91073  803.37500  773.75000  746.75000  718.12500  -27.87400 4957.40234   56.17849   77.20578
 2265.88330    9.47966 2265.88281   43.32274  803.50000  773.75000  746.62500  718.00000  -32.03708 4953.07910   56.20699   77.21983
 2265.80713    9.49844 2265.80664   43.56316  803.50000  773.62500  746.62500  718.00000  -34.46294 4950.49414   56.23196   77.23389
 2265.73096    9.52332 2265.73047   43.50101  803.50000  773.50000  746.62500  717.75000  -33.31659 4951.49902   56.24437   77.24796
 2265.65479    9.54529 2265.65430   43.13869  803.37500  773.50000  746.37500  717.87500  -28.62506 4956.07812   56.25142   77.26201
 2265.57812    9.55683 2265.57812   42.53561  803.50000  773.50000  746.62500  717.87500  -21.82631 4962.79883   56.26359   77.27608
 2265.50195    9.55509 2265.50195   41.76693  803.62500  773.50000  746.50000  717.87500  -14.82511 4969.75391   56.27840   77.29015
 2265.42578    9.54317 2265.42578   40.97246  803.25000  773.37500  746.25000  717.62500   -8.76226 4975.79395   56.28493   77.30421
 2265.34961    9.52722 2265.34961   40.27476  803.12500  773.25000  746.12500  717.50000   -3.80508 4980.74219   56.27438   77.31828
 2265.27344    9.51363 2265.27344   39.68900  803.00000  773.25000  746.25000  718.00000    0.32850 4984.87891   56.25076   77.33235
 2265.19727    9.50539 2265.19727   39.13007  803.25000  773.37500  746.37500  716.87500    3.58661 4988.15039   56.23444   77.34641
 2265.12109    9.50413 2265.12109   38.62365  803.25000  773.37500  746.75000  716.37500    4.88021 4989.46387   56.23437   77.36047
 2265.04492    9.50982 2265.04492   38.26377  803.25000  773.37500  745.37500  724.62500    3.19951 4987.79688   56.23064   77.37453
 2264.96875    9.52160 2264.96875   38.17213  803.25000  773.75000  743.37500  731.00000   -1.67122 4982.92090   56.21088   77.38858
 2264.89258    9.53683 2264.89258   38.43984  803.25000  772.62500  754.00000  717.37500   -9.41973 4975.13184   56.19158   77.40263
 2264.81641    9.55095 2264.81592   39.07848  803.62500  772.00000  756.87500  718.00000  -19.77037 4964.69336   56.18186   77.41667
 2264.74023    9.55820 2264.73975   39.99451  802.37500  780.37500  745.62500  723.00000  -33.52061 4950.80078   56.16463   77.43071
 2264.66406    9.55574 2264.66406   40.92758  801.37500  787.00000  747.00000  713.75000  -50.10853 4934.00879   56.11518   77.44475
 2264.58789    9.54532 2264.58789   41.51331  811.12500  772.87500  748.00000  709.87500  -67.26930 4916.58301   56.02786   77.45876
 2264.51172    9.53348 2264.51172   41.57949  813.75000  773.75000  741.00000  713.25000  -81.57542 4901.96094   55.93774   77.47273
 2264.43555    9.52737 2264.43506   41.20853  802.62500  779.12500  738.62500  713.50000  -89.56467 4893.63184   55.88642   77.48671
 2264.35938    9.53131 2264.35889   40.71336  803.87500  769.37500  740.37500  713.75000  -88.87010 4893.99902   55.86316   77.50067
 2264.28320    9.54458 2264.28271   40.41807  804.87500  765.37500  740.37500  714.00000  -79.49724 4903.09375   55.82725   77.51463
 2264.20654    9.56071 2264.20654   40.49490  797.62500  768.75000  740.37500  713.62500  -65.19011 4917.18945   55.76823   77.52856
 2264.13037    9.57252 2264.13037   40.88299  795.37500  769.25000  740.62500  714.00000  -52.60478 4929.62207   55.70728   77.54250
 2264.05420    9.57438 2264.05420   41.31779  797.25000  769.62500  740.62500  714.12500  -44.58771 4937.51953   55.66643   77.55641
 2263.97803    9.56591 2263.97803   41.55215  797.25000  770.00000  740.87500  714.25000  -38.82597 4943.17871   55.64471   77.57031
 2263.90186    9.55118 2263.90186   41.45766  797.37500  769.75000  740.87500  714.12500  -31.37614 4950.53906   55.61356   77.58421
 2263.82568    9.53625 2263.82568   41.09531  797.50000  769.87500  740.87500  714.25000  -21.36684 4960.48145   55.55406   77.59810
 2263.74951    9.52726 2263.74951   40.65297  797.37500  769.75000  740.75000  714.12500  -11.58526 4970.22168   55.48628   77.61197
 2263.67334    9.52792 2263.67334   40.33847  797.25000  769.62500  740.75000  714.12500   -6.82967 4974.94238   55.43864   77.62584
 2263.59717    9.53691 2263.59717   40.32927  797.25000  769.37500  740.62500  714.00000  -10.85947 4970.85059   55.41765   77.63969
 2263.52100    9.54884 2263.52100   40.67696  797.25000  769.37500  740.62500  714.12500  -23.96624 4957.61621   55.41831   77.65355
 2263.44482    9.55619 2263.44482   41.24780  797.12500  769.37500  740.62500  714.00000  -42.19426 4939.17773   55.43573   77.66740
 2263.36865    9.55392 2263.36865   41.80176  797.25000  769.37500  740.75000  714.00000  -58.65365 4922.43359   55.46205   77.68127
 2263.29248    9.54256 2263.29248   42.03176  797.12500  769.37500  740.87500  714.25000  -67.23697 4913.52344   55.48935   77.69514
 2263.21631    9.52770 2263.21582   41.78838  797.50000  770.00000  741.00000  714.37500  -67.68047 4912.74414   55.51820   77.70901
 2263.14014    9.51641 2263.13965   41.18592  797.37500  769.75000  740.87500  714.12500  -64.32156 4915.77930   55.55513   77.72290
 2263.06396    9.51134 2263.06348   40.52044  797.37500  769.75000  740.87500  714.00000  -60.14052 4919.65723   55.60168   77.73680
 2262.98779    9.51069 2262.98730   40.04369  797.62500  769.87500  740.87500  713.87500  -55.16116 4924.36133   55.64887   77.75072
 2262.91113    9.50947 2262.91113   39.85154  797.50000  769.75000  740.75000  714.00000  -48.34083 4930.94336   55.68336   77.76465
 2262.83496    9.50296 2262.83496   39.86282  797.37500  769.50000  740.62500  713.87500  -38.84758 4940.24609   55.70124   77.77856
 2262.75879    9.49093 2262.75879   39.83916  797.50000  769.37500  740.62500  714.00000  -26.76028 4952.20020   55.71325   77.79250
 2262.68262    9.47771 2262.68262   39.59795  797.37500  769.25000  740.75000  714.00000  -13.39620 4965.49219   55.73140   77.80643
 2262.60645    9.46926 2262.60645   39.14079  797.37500  769.37500  740.75000  714.00000   -1.15867 4977.71582   55.75043   77.82037
 2262.53027    9.46976 2262.53027   38.63734  797.25000  769.37500  740.75000  713.87500    7.19085 4986.09766   55.74768   77.83430
 2262.45410    9.47936 2262.45410   38.29454  797.25000  769.50000  740.75000  713.75000   10.05447 4989.02148   55.70610   77.84824
 2262.37793    9.49445 2262.37793   38.21501  797.25000  769.50000  740.75000  713.87500    7.88417 4986.91797   55.64001   77.86214
 2262.30176    9.50915 2262.30176   38.41672  797.50000  769.50000  740.62500  713.87500    1.85609 4980.94336   55.58655   77.87604
 2262.22559    9.51822 2262.22559   38.84484  797.50000  769.50000  740.75000  714.00000   -6.40884 4972.69727   55.56422   77.88992
 2262.14941    9.51877 2262.14941   39.30273  797.37500  769.50000  740.75000  713.87500  -15.35473 4963.72559   55.55398   77.90381
 2262.07324    9.50977 2262.07324   39.65469  797.25000  769.50000  740.75000  713.87500  -23.81042 4955.19629   55.52623   77.91769
 2261.99707    9.49424 2261.99658   39.81510  797.37500  769.62500  740.75000  713.87500  -31.04151 4947.84863   55.47820   77.93156
 2261.92090    9.47735 2261.92041   39.81654  797.50000  769.75000  740.75000  713.87500  -37.35770 4941.38379   55.43793   77.94542
 2261.84473    9.46561 2261.84424   39.80496  797.37500  769.62500  740.62500  714.00000  -44.02805 4934.53711   55.42970   77.95927
