~Version ---------------------------------------------------
VERS.   2.0 : CWLS log ASCII Standard -VERSION 2.0
WRAP.    NO : One line per depth step
DLM . SPACE : Column Data Section Delimiter
~Well ------------------------------------------------------
STRT.m         2656.86523 : START DEPTH
STOP.m         1480.87085 : STOP DEPTH
STEP.m           -0.07617 : STEP
NULL.             -999.25 : NULL VALUE
COMP.           PETROBRAS : COMPANY
WELL.       3-BRSA-19-RJS : WELL
FLD .              BS-500 : FIELD
LOC .                     : LOCATION
PROV.                     : PROVINCE
CNTY.                     : COUNTY
STAT.                     : STATE
CTRY.                     : COUNTRY
SRVC.                     : SERVICE COMPANY
DATE. 2004-06-30 00:00:00 : DATE
UWI .         74316019025 : UNIQUE WELL ID
API .         74316019025 : API NUMBER
~Curve Information -----------------------------------------
DEPT.m      : None
SPD .m/min  : None
DEPM.m      : None
GR  .gAPI   : None
S024.us     : None
S023.us     : None
S022.us     : None
S021.us     : None
TEN .lbf    : None
TTEN.lbf    : None
DT  .us/ft  : None
TT  .ms     : None
~Params ----------------------------------------------------
PROD   .                                  : 
PROG   .                         ['HOIS'] : 
RUN    .                           ['01'] : 
DESCENT.                               [] : 
VERSION.                                  : 
LINEAGE.       Python-converted from DLIS : 
ORFILE . ../inputs/3-brsa-19-rjs_mac.dlis : 
~Other -----------------------------------------------------
~ASCII -----------------------------------------------------
# ...
 1662.15063    9.48143 1662.15039   48.75198  818.12500  774.87500  742.62500  713.87500    1.41124 4295.77832   55.65528  188.94986
 1662.07446    9.49572 1662.07422   48.75152  802.75000  779.75000  739.37500  714.37500    0.40996 4294.78516   55.64336  188.96378
 1661.99829    9.49982 1661.99805   48.26683  804.50000  770.37500  741.12500  714.25000   -9.86735 4284.49707   55.63118  188.97766
 1661.92212    9.49327 1661.92188   47.35943  804.62500  766.50000  741.12500  714.25000  -23.97873 4270.33789   55.58536  188.99158
 1661.84595    9.48119 1661.84570   46.34457  798.87500  769.12500  741.12500  714.25000  -34.05113 4260.19141   55.51328  189.00546
 1661.76953    9.47175 1661.76953   45.63920  795.62500  769.62500  741.12500  714.37500  -34.61272 4259.56836   55.45300  189.01932
 1661.69336    9.47120 1661.69336   45.46787  797.50000  769.50000  741.25000  714.37500  -26.03627 4268.12793   55.43447  189.03317
 1661.61719    9.48045 1661.61719   45.83484  797.37500  769.50000  741.25000  714.37500  -13.70969 4280.49414   55.44975  189.04703
 1661.54102    9.49474 1661.54077   46.52683  797.50000  769.50000  741.37500  714.50000   -4.66309 4289.61914   55.46300  189.06091
 1661.46484    9.50660 1661.46460   47.17572  797.50000  769.62500  741.37500  714.37500   -3.40165 4290.96289   55.45538  189.07477
 1661.38867    9.51057 1661.38843   47.54288  797.50000  769.62500  741.37500  714.37500   -9.54497 4284.87012   55.43900  189.08862
 1661.31250    9.50586 1661.31226   47.62357  797.62500  769.75000  741.37500  714.50000  -18.76543 4275.64844   55.42870  189.10248
 1661.23633    9.49643 1661.23608   47.57279  797.62500  769.75000  741.37500  714.50000  -25.77182 4268.58789   55.42583  189.11633
 1661.16016    9.48801 1661.15991   47.51168  797.62500  769.75000  741.37500  714.37500  -27.23833 4267.03027   55.42764  189.13019
 1661.08374    9.48440 1661.08374   47.52320  797.62500  769.62500  741.37500  714.37500  -24.22535 4269.93164   55.43114  189.14404
 1661.00757    9.48524 1661.00757   47.55905  797.62500  769.75000  741.25000  714.37500  -20.04753 4273.99023   55.43175  189.15790
 1660.93140    9.48838 1660.93115   47.47871  797.62500  769.75000  741.37500  714.37500  -17.05486 4276.86621   55.42724  189.17175
 1660.85522    9.49019 1660.85498   47.28426  797.62500  769.62500  741.25000  714.37500  -15.13304 4278.68652   55.42035  189.18561
 1660.77905    9.48993 1660.77905   47.12930  797.62500  769.75000  741.37500  714.37500  -12.65974 4281.08105   55.41669  189.19946
 1660.70288    9.49026 1660.70264   47.16109  797.50000  769.75000  741.25000  714.50000   -8.26084 4285.43262   55.41807  189.21332
 1660.62671    9.49539 1660.62646   47.46443  797.62500  769.62500  741.25000  714.50000   -1.80901 4291.86621   55.42088  189.22717
 1660.55054    9.50715 1660.55029   47.94401  797.62500  769.62500  741.37500  714.50000    5.42900 4299.11426   55.42262  189.24103
 1660.47412    9.52301 1660.47412   48.37477  797.62500  769.75000  741.37500  714.50000   11.45615 4305.16699   55.42453  189.25488
 1660.39795    9.53623 1660.39795   48.59158  797.50000  769.62500  741.37500  714.50000   14.19452 4307.93555   55.42944  189.26874
 1660.32178    9.54003 1660.32178   48.58553  797.62500  769.75000  741.37500  714.50000   12.13153 4305.88770   55.43900  189.28259
 1660.24561    9.53140 1660.24561   48.31778  797.62500  769.87500  741.37500  714.50000    5.37960 4299.12207   55.45012  189.29645
 1660.16943    9.51341 1660.16943   47.72038  797.75000  769.75000  741.37500  714.50000   -3.89370 4289.79980   55.45689  189.31033
 1660.09326    9.49407 1660.09302   46.78426  797.75000  769.87500  741.50000  714.62500  -12.37638 4281.24023   55.45706  189.32419
 1660.01709    9.48190 1660.01685   45.57137  797.75000  769.87500  741.50000  714.62500  -16.73331 4276.79785   55.45333  189.33807
 1659.94092    9.48223 1659.94067   44.33394  797.75000  769.87500  741.50000  714.62500  -14.94981 4278.51367   55.44913  189.35193
 1659.86475    9.49279 1659.86450   43.47485  797.75000  769.87500  741.62500  714.75000   -7.78815 4285.64941   55.44583  189.36578
 1659.78833    9.50687 1659.78833   43.33710  797.87500  770.00000  741.62500  714.75000    0.74791 4294.20312   55.44172  189.37964
 1659.71216    9.51761 1659.71216   44.05936  797.75000  769.87500  741.50000  714.62500    5.04111 4298.53809   55.43476  189.39349
 1659.63599    9.52119 1659.63599   45.47933  797.75000  770.00000  741.50000  714.62500    1.79164 4295.31348   55.42834  189.40735
 1659.55981    9.51720 1659.55981   47.10886  797.75000  770.00000  741.50000  714.62500   -8.38408 4285.10938   55.42780  189.42120
 1659.48364    9.50779 1659.48340   48.37823  797.75000  769.87500  741.62500  714.62500  -20.89511 4272.49902   55.43389  189.43506
 1659.40747    9.49577 1659.40723   48.89355  797.87500  770.00000  741.62500  714.62500  -28.99454 4264.24219   55.44341  189.44891
 1659.33130    9.48358 1659.33105   48.58714  797.87500  770.00000  741.50000  714.75000  -26.86558 4266.19824   55.45163  189.46277
 1659.25513    9.47381 1659.25488   47.73324  797.75000  769.87500  741.50000  714.62500  -13.40082 4279.53223   55.45570  189.47665
 1659.17896    9.46844 1659.17871   46.78851  797.75000  769.87500  741.62500  714.75000    7.69507 4300.59668   55.45723  189.49051
 1659.10254    9.46880 1659.10254   46.16512  797.87500  769.87500  741.62500  714.75000   28.87921 4321.87793   55.45889  189.50439
 1659.02637    9.47537 1659.02637   46.04919  797.87500  770.00000  741.62500  714.75000   42.01501 4335.22559   55.46036  189.51825
 1658.95020    9.48701 1658.95020   46.40909  797.87500  770.00000  741.62500  714.75000   42.28863 4335.77148   55.46078  189.53214
 1658.87402    9.49926 1658.87378   47.07199  798.00000  770.12500  741.75000  715.00000   30.62819 4324.36816   55.46005  189.54599
 1658.79785    9.50877 1658.79761   47.75974  797.87500  770.12500  741.75000  714.87500   11.24118 4305.15625   55.45708  189.55988
 1658.72168    9.51316 1658.72144   48.20319  798.00000  770.12500  741.87500  714.87500   -9.79080 4284.18066   55.45149  189.57373
 1658.64551    9.51258 1658.64526   48.20493  798.00000  770.25000  741.87500  714.87500  -26.70488 4267.20801   55.44379  189.58759
 1658.56934    9.50957 1658.56909   47.74132  798.00000  770.25000  741.75000  715.00000  -37.00137 4256.77246   55.43374  189.60144
 1658.49292    9.50797 1658.49292   46.99394  798.12500  770.25000  741.75000  715.00000  -41.71877 4251.87988   55.42162  189.61530
 1658.41675    9.50954 1658.41675   46.21040  798.12500  770.25000  741.87500  715.00000  -42.43716 4250.98047   55.40903  189.62915
 1658.34058    9.51476 1658.34058   45.66220  798.12500  770.25000  741.87500  715.00000  -40.43225 4252.81641   55.39767  189.64301
 1658.26440    9.52260 1658.26416   45.50107  798.00000  770.25000  742.00000  715.00000  -35.89316 4257.20703   55.38894  189.65686
 1658.18823    9.53053 1658.18799   45.66043  798.12500  770.37500  741.87500  715.00000  -28.08617 4264.89648   55.38365  189.67068
 1658.11206    9.53627 1658.11182   45.93988  798.12500  770.37500  741.87500  715.00000  -17.41452 4275.49512   55.37988  189.68454
 1658.03589    9.53810 1658.03564   46.15453  798.12500  770.25000  741.87500  715.00000   -6.84856 4286.03809   55.37402  189.69836
 1657.95972    9.53480 1657.95947   46.20127  798.12500  770.25000  741.87500  715.00000   -0.53621 4292.36523   55.36578  189.71222
 1657.88354    9.52654 1657.88330   46.10777  798.12500  770.25000  741.87500  715.00000   -1.82534 4291.09082   55.35940  189.72604
 1657.80713    9.51550 1657.80713   45.97446  798.12500  770.37500  742.00000  715.12500  -11.31394 4281.57715   55.35793  189.73990
 1657.73096    9.50316 1657.73096   45.96209  798.12500  770.37500  742.00000  715.12500  -25.88823 4266.90723   55.35842  189.75372
 1657.65479    9.49237 1657.65454   46.07052  798.12500  770.37500  742.00000  715.12500  -40.05337 4252.57812   55.35589  189.76758
 1657.57861    9.48604 1657.57837   46.15368  798.12500  770.37500  741.87500  715.00000  -49.15781 4243.26367   55.34900  189.78140
