~Version ---------------------------------------------------
VERS.   2.0 : CWLS log ASCII Standard -VERSION 2.0
WRAP.    NO : One line per depth step
DLM . SPACE : Column Data Section Delimiter
~Well ------------------------------------------------------
STRT.m         2656.86523 : START DEPTH
STOP.m         1480.87085 : STOP DEPTH
STEP.m           -0.07617 : STEP
NULL.             -999.25 : NULL VALUE
COMP.           PETROBRAS : COMPANY
WELL.       3-BRSA-19-RJS : WELL
FLD .              BS-500 : FIELD
LOC .                     : LOCATION
PROV.                     : PROVINCE
CNTY.                     : COUNTY
STAT.                     : STATE
CTRY.                     : COUNTRY
SRVC.                     : SERVICE COMPANY
DATE. 2004-06-30 00:00:00 : DATE
UWI .         74316019025 : UNIQUE WELL ID
API .         74316019025 : API NUMBER
~Curve Information -----------------------------------------
DEPT.m      : None
SPD .m/min  : None
DEPM.m      : None
GR  .gAPI   : None
S024.us     : None
S023.us     : None
S022.us     : None
S021.us     : None
TEN .lbf    : None
TTEN.lbf    : None
DT  .us/ft  : None
TT  .ms     : None
~Params ----------------------------------------------------
PROD   .                                  : 
PROG   .                         ['HOIS'] : 
RUN    .                           ['01'] : 
DESCENT.                               [] : 
VERSION.                                  : 
LINEAGE.       Python-converted from DLIS : 
ORFILE . ../inputs/3-brsa-19-rjs_mac.dlis : 
~Other -----------------------------------------------------
~ASCII -----------------------------------------------------
# ...
 1964.28369    9.86240 1964.28345   33.88020  803.75000  774.50000  747.75000  721.37500   -0.27452 4658.31543   55.41079  133.20648
 1964.20752    9.87212 1964.20728   34.41463  803.87500  774.62500  747.75000  721.37500   -1.50806 4656.97949   55.42894  133.22034
 1964.13135    9.88745 1964.13110   35.14661  803.87500  774.75000  747.75000  721.75000   -3.49854 4654.87109   55.45671  133.23419
 1964.05493    9.90401 1964.05493   35.79330  804.12500  774.75000  747.87500  719.00000   -4.27408 4653.98340   55.48975  133.24808
 1963.97876    9.91632 1963.97876   36.04507  804.12500  774.75000  748.00000  718.25000   -5.06721 4653.09863   55.53708  133.26196
 1963.90259    9.92069 1963.90234   35.72604  804.12500  774.75000  747.25000  724.50000   -8.78217 4649.30762   55.60879  133.27585
 1963.82642    9.91516 1963.82617   35.01926  804.12500  774.75000  746.25000  731.25000  -17.48651 4640.51660   55.69250  133.28976
 1963.75024    9.90200 1963.75024   34.33010  804.12500  774.37500  750.62500  723.37500  -30.34942 4627.52734   55.75338  133.30371
 1963.67407    9.88445 1963.67383   34.01338  804.25000  773.50000  757.00000  731.12500  -43.70205 4613.99121   55.76546  133.31766
 1963.59790    9.86746 1963.59766   34.09040  803.75000  779.75000  749.75000  709.75000  -53.09858 4604.35742   55.73682  133.33157
 1963.52173    9.85432 1963.52148   34.37789  802.87500  787.00000  756.50000  715.12500  -54.86800 4602.32617   55.69827  133.34552
 1963.44556    9.84750 1963.44531   34.71407  809.62500  778.62500  736.87500  710.00000  -48.16175 4608.78906   55.66856  133.35944
 1963.36914    9.84826 1963.36914   35.02026  813.75000  787.37500  742.25000  711.75000  -35.50381 4621.25781   55.63445  133.37335
 1963.29297    9.85649 1963.29297   35.25292  806.00000  764.62500  738.25000  712.75000  -21.20182 4635.44238   55.57030  133.38724
 1963.21680    9.87047 1963.21680   35.40553  813.00000  770.00000  739.37500  713.00000   -9.49941 4647.09277   55.47738  133.40109
 1963.14062    9.88753 1963.14062   35.45521  793.00000  765.12500  739.87500  712.87500   -3.57552 4653.00195   55.39260  133.41495
 1963.06445    9.90334 1963.06421   35.35220  798.37500  767.00000  739.75000  712.87500   -4.85326 4651.70801   55.35384  133.42880
 1962.98828    9.91433 1962.98804   35.02927  794.50000  767.25000  739.87500  712.75000  -11.54796 4644.96973   55.36652  133.44263
 1962.91211    9.91827 1962.91187   34.51191  795.75000  767.00000  739.87500  712.62500  -19.74226 4636.69922   55.40478  133.45648
 1962.83594    9.91513 1962.83569   33.96287  796.25000  767.12500  739.75000  712.62500  -26.24287 4630.10059   55.43800  133.47034
 1962.75952    9.90762 1962.75952   33.63299  796.12500  767.25000  739.75000  712.75000  -30.96707 4625.26855   55.45503  133.48422
 1962.68335    9.89935 1962.68335   33.61713  796.25000  767.12500  739.75000  712.87500  -35.63108 4620.48633   55.46392  133.49808
 1962.60718    9.89488 1962.60718   33.81956  796.25000  767.00000  739.75000  713.12500  -41.66758 4614.31055   55.47299  133.51196
 1962.53101    9.89540 1962.53101   34.13570  796.12500  767.00000  739.87500  713.12500  -49.14382 4606.66016   55.47986  133.52582
 1962.45483    9.90045 1962.45459   34.50367  796.00000  767.00000  740.00000  713.12500  -57.33205 4598.25684   55.47943  133.53970
 1962.37866    9.90764 1962.37842   34.83635  796.00000  767.12500  740.00000  713.00000  -64.31145 4591.02344   55.47335  133.55356
 1962.30249    9.91342 1962.30225   34.99754  795.87500  767.12500  739.87500  712.87500  -67.49628 4587.56543   55.46854  133.56744
 1962.22632    9.91501 1962.22607   34.90055  796.00000  767.12500  739.87500  712.75000  -65.26826 4589.52637   55.47054  133.58130
 1962.15015    9.91138 1962.14990   34.64114  796.12500  767.12500  739.87500  712.75000  -59.08334 4595.47168   55.47881  133.59518
 1962.07373    9.90324 1962.07373   34.38882  796.12500  767.12500  739.75000  712.75000  -52.10604 4602.24316   55.48746  133.60904
 1961.99756    9.89323 1961.99756   34.23586  796.25000  767.12500  739.75000  712.87500  -46.39092 4607.78223   55.49122  133.62292
 1961.92139    9.88481 1961.92139   34.13252  796.25000  767.12500  739.87500  713.12500  -41.37058 4612.65039   55.48960  133.63678
 1961.84521    9.88057 1961.84497   33.97139  796.12500  767.12500  739.87500  713.25000  -35.65620 4618.23633   55.48581  133.65067
 1961.76904    9.88108 1961.76880   33.74681  796.12500  767.12500  740.00000  713.12500  -28.93454 4624.85449   55.48288  133.66452
 1961.69287    9.88554 1961.69263   33.49741  796.00000  767.12500  740.12500  713.12500  -21.99229 4631.71680   55.48100  133.67841
 1961.61670    9.89236 1961.61646   33.33708  796.00000  767.25000  740.12500  712.87500  -16.02204 4637.62891   55.47730  133.69226
 1961.54053    9.89888 1961.54028   33.28680  796.12500  767.37500  740.00000  712.75000  -11.79202 4641.81543   55.46859  133.70615
 1961.46436    9.90405 1961.46411   33.24473  796.25000  767.25000  739.87500  712.87500   -9.34225 4644.23340   55.45528  133.72000
 1961.38794    9.90599 1961.38794   33.09723  796.37500  767.25000  739.87500  712.87500   -7.50395 4646.04980   55.44223  133.73386
 1961.31177    9.90387 1961.31177   32.77962  796.25000  767.12500  739.87500  712.87500   -4.29119 4649.25684   55.43655  133.74771
 1961.23560    9.89874 1961.23535   32.35494  796.25000  767.12500  739.87500  713.12500    1.38324 4654.95215   55.44017  133.76157
 1961.15942    9.89290 1961.15918   32.01750  796.12500  767.25000  740.00000  713.12500    8.16140 4661.77832   55.44332  133.77542
 1961.08325    9.88865 1961.08301   31.93598  796.12500  767.12500  740.00000  713.00000   12.61036 4666.29395   55.43510  133.78928
 1961.00708    9.88829 1961.00684   32.14241  796.12500  767.12500  739.87500  712.87500   11.11231 4664.85254   55.42014  133.80313
 1960.93091    9.89258 1960.93066   32.46433  796.12500  767.25000  739.87500  712.75000    2.26096 4656.01758   55.41627  133.81699
 1960.85474    9.89987 1960.85449   32.75214  796.12500  767.12500  739.87500  712.75000  -12.85660 4640.84766   55.43405  133.83084
 1960.77832    9.90699 1960.77832   32.99895  796.12500  767.12500  739.75000  712.75000  -32.26443 4621.30176   55.46294  133.84473
 1960.70215    9.91109 1960.70215   33.25490  796.12500  767.00000  739.62500  712.75000  -53.44711 4599.88965   55.48175  133.85858
 1960.62598    9.91090 1960.62573   33.57185  796.12500  767.00000  739.75000  712.62500  -72.20001 4580.82715   55.48312  133.87247
 1960.54980    9.90687 1960.54956   33.88880  796.12500  767.12500  739.75000  712.75000  -84.27286 4568.39746   55.48151  133.88632
 1960.47363    9.90069 1960.47339   34.06248  796.12500  767.12500  739.75000  713.00000  -86.84880 4565.45996   55.49018  133.90021
 1960.39746    9.89224 1960.39722   33.95601  796.00000  767.12500  739.87500  713.12500  -79.72595 4572.25879   55.50195  133.91406
 1960.32129    9.88281 1960.32129   33.53289  796.00000  767.00000  739.87500  713.12500  -64.94513 4586.78613   55.50011  133.92795
 1960.24512    9.87492 1960.24487   32.83153  796.00000  767.12500  740.00000  713.12500  -46.20577 4605.35547   55.48007  133.94180
 1960.16895    9.87077 1960.16870   32.00852  796.00000  767.25000  740.25000  713.25000  -27.63527 4623.83301   55.45535  133.95569
 1960.09253    9.87062 1960.09253   31.37253  796.25000  767.37500  740.25000  713.12500  -13.43909 4637.99023   55.43886  133.96954
 1960.01636    9.87369 1960.01611   31.12683  796.25000  767.37500  740.12500  713.00000   -6.39274 4645.02344   55.42507  133.98340
 1959.94019    9.87880 1959.93994   31.20914  796.25000  767.25000  740.00000  713.00000   -5.99226 4645.41211   55.40013  133.99725
 1959.86401    9.88433 1959.86377   31.44388  796.25000  767.25000  740.00000  713.00000   -8.89376 4642.49414   55.36428  134.01108
 1959.78784    9.88888 1959.78784   31.62230  796.37500  767.37500  740.00000  712.87500  -12.03074 4639.33691   55.33289  134.02493
 1959.71167    9.89245 1959.71167   31.68416  796.25000  767.25000  740.00000  713.00000  -12.78517 4638.56641   55.31819  134.03876
