~Version ---------------------------------------------------
VERS.   2.0 : CWLS log ASCII Standard -VERSION 2.0
WRAP.    NO : One line per depth step
DLM . SPACE : Column Data Section Delimiter
~Well ------------------------------------------------------
STRT.m         2656.86523 : START DEPTH
STOP.m         1480.87085 : STOP DEPTH
STEP.m           -0.07617 : STEP
NULL.             -999.25 : NULL VALUE
COMP.           PETROBRAS : COMPANY
WELL.       3-BRSA-19-RJS : WELL
FLD .              BS-500 : FIELD
LOC .                     : LOCATION
PROV.                     : PROVINCE
CNTY.                     : COUNTY
STAT.                     : STATE
CTRY.                     : COUNTRY
SRVC.                     : SERVICE COMPANY
DATE. 2004-06-30 00:00:00 : DATE
UWI .         74316019025 : UNIQUE WELL ID
API .         74316019025 : API NUMBER
~Curve Information -----------------------------------------
DEPT.m      : None
SPD .m/min  : None
DEPM.m      : None
GR  .gAPI   : None
S024.us     : None
S023.us     : None
S022.us     : None
S021.us     : None
TEN .lbf    : None
TTEN.lbf    : None
DT  .us/ft  : None
TT  .ms     : None
~Params ----------------------------------------------------
PROD   .                                  : 
PROG   .                         ['HOIS'] : 
RUN    .                           ['01'] : 
DESCENT.                               [] : 
VERSION.                                  : 
LINEAGE.       Python-converted from DLIS : 
ORFILE . ../inputs/3-brsa-19-rjs_mac.dlis : 
~Other -----------------------------------------------------
~ASCII -----------------------------------------------------
# ...
 2568.54932    9.09447 2568.54932   54.62216  776.00000  748.87500  722.62500  696.00000   22.70055 5367.64648   54.61295   20.99947
 2568.47314    9.09712 2568.47314   54.47417  776.12500  748.62500  722.37500  696.37500   16.76623 5361.77930   54.65052   21.01313
 2568.39697    9.10883 2568.39697   54.24254  776.00000  749.25000  722.25000  696.50000    0.51794 5345.51660   54.66080   21.02680
 2568.32080    9.12645 2568.32080   54.13068  776.00000  749.37500  723.00000  696.62500  -23.24930 5321.61426   54.59618   21.04045
 2568.24463    9.14489 2568.24463   54.28047  777.12500  750.25000  723.87500  697.37500  -47.60146 5297.00195   54.48910   21.05407
 2568.16846    9.15881 2568.16846   54.77911  777.50000  751.00000  724.62500  698.12500  -64.78555 5279.46777   54.40990   21.06767
 2568.09229    9.16390 2568.09229   55.51591  777.87500  751.50000  725.25000  699.00000  -69.81322 5274.05664   54.33301   21.08126
 2568.01611    9.15878 2568.01611   56.18407  778.50000  752.00000  725.50000  699.00000  -62.11985 5281.39551   54.16067   21.09480
 2567.93994    9.14515 2567.93994   56.54394  778.87500  752.00000  726.00000  699.12500  -46.09389 5297.13867   53.89532   21.10827
 2567.86377    9.12587 2567.86377   56.61255  779.12500  752.12500  725.75000  699.12500  -28.40411 5314.63086   53.69658   21.12170
 2567.78760    9.10709 2567.78711   56.50208  778.87500  752.00000  725.50000  698.75000  -15.16999 5327.74219   53.82511   21.13515
 2567.71143    9.09515 2567.71094   56.31757  779.25000  752.00000  725.50000  699.00000   -9.94191 5332.89453   54.49805   21.14878
 2567.63525    9.09350 2567.63525   56.12897  780.12500  752.25000  726.37500  699.87500  -11.90081 5330.87988   55.63867   21.16269
 2567.55908    9.10185 2567.55908   55.92929  779.12500  752.00000  725.87500  698.25000  -17.16378 5325.56738   56.84616   21.17690
 2567.48291    9.11648 2567.48291   55.51859  784.00000  755.25000  731.25000  703.75000  -21.26841 5321.41309   57.71974   21.19133
 2567.40674    9.13054 2567.40625   54.83758  780.50000  753.87500  727.50000  701.87500  -21.88818 5320.74902   58.14312   21.20586
 2567.33057    9.13796 2567.33008   54.09954  782.12500  755.50000  729.62500  702.87500  -19.24183 5323.35254   58.25905   21.22043
 2567.25439    9.13648 2567.25391   53.64943  786.12500  762.12500  736.25000  709.25000  -15.80416 5326.74316   58.25047   21.23499
 2567.17773    9.12761 2567.17773   53.77599  798.87500 1155.00000  745.50000  718.00000  -15.26041 5327.22168   58.05793   21.24950
 2567.10156    9.11696 2567.10156   54.48064  786.50000  758.37500  729.75000  711.37500  -19.23386 5323.14941   57.42109   21.26386
 2567.02539    9.11190 2567.02539   55.47375  784.37500  756.75000  728.37500  701.62500  -26.23878 5316.00586   56.31735   21.27794
 2566.94922    9.11671 2566.94922   56.50424  786.75000  758.50000  731.62500  704.75000  -32.66006 5309.41504   55.12532   21.29172
 2566.87305    9.12957 2566.87305   57.42454  785.87500  758.25000  732.00000  705.37500  -35.16673 5306.73047   54.32060   21.30530
 2566.79688    9.14526 2566.79688   58.05779  785.75000  758.62500  731.75000  705.00000  -33.34599 5308.38281   54.09408   21.31882
 2566.72070    9.15635 2566.72070   58.21632  785.75000  758.50000  731.50000  704.12500  -28.61245 5312.96484   54.24157   21.33239
 2566.64453    9.15774 2566.64453   57.96420  785.87500  758.50000  731.12500  704.00000  -22.43291 5319.00781   54.39653   21.34599
 2566.56836    9.14878 2566.56836   57.39243  785.87500  758.00000  730.87500  704.25000  -15.50332 5325.81152   54.38959   21.35958
 2566.49219    9.13395 2566.49219   56.53540  786.37500  758.37500  731.50000  704.12500   -8.15990 5333.04492   54.30511   21.37316
 2566.41602    9.11984 2566.41602   55.54975  786.37500  757.87500  731.00000  703.75000   -0.99533 5340.11914   54.22334   21.38671
 2566.33984    9.11135 2566.33984   54.66771  785.87500  757.87500  730.50000  703.50000    4.84215 5345.89160   54.13174   21.40025
 2566.26367    9.10943 2566.26367   54.13870  785.50000  757.62500  730.12500  703.25000    8.00163 5349.01074   54.02139   21.41375
 2566.18750    9.11130 2566.18701   54.10269  785.00000  756.87500  730.00000  703.25000    7.78751 5348.77148   53.93147   21.42723
 2566.11133    9.11349 2566.11084   54.51012  785.37500  756.62500  729.50000  702.50000    4.39535 5345.35742   53.90697   21.44071
 2566.03516    9.11488 2566.03467   55.20956  784.87500  756.87500  729.87500  702.50000   -1.12620 5339.80762   53.94637   21.45420
 2565.95898    9.11706 2565.95850   55.98169  783.75000  756.00000  728.62500  701.50000   -7.22724 5333.66504   54.01299   21.46770
 2565.88232    9.12109 2565.88232   56.56560  783.50000  755.50000  728.00000  701.37500  -12.83520 5328.00098   54.09135   21.48123
 2565.80615    9.12718 2565.80615   56.77399  784.12500  756.25000  728.62500  702.25000  -16.89429 5323.87305   54.20197   21.49478
 2565.72998    9.13324 2565.72998   56.70944  783.62500  755.25000  728.25000  701.50000  -18.27145 5322.41797   54.34673   21.50836
 2565.65381    9.13640 2565.65381   56.63931  783.50000  754.87500  728.50000  701.75000  -16.66473 5323.94531   54.48842   21.52198
 2565.57764    9.13458 2565.57764   56.62363  783.37500  755.62500  728.87500  701.75000  -13.07858 5327.45605   54.58874   21.53563
 2565.50146    9.12902 2565.50146   56.63462  782.87500  755.37500  728.37500  702.00000   -9.28349 5331.18066   54.64326   21.54929
 2565.42529    9.12338 2565.42529   56.61416  783.50000  755.87500  728.87500  702.50000   -7.02276 5333.37305   54.68756   21.56297
 2565.34912    9.12139 2565.34912   56.58535  783.50000  755.87500  729.25000  702.50000   -7.40094 5332.91992   54.75616   21.57665
 2565.27295    9.12413 2565.27295   56.53312  783.75000  756.25000  729.75000  701.50000   -9.92217 5330.30957   54.84216   21.59036
 2565.19678    9.12901 2565.19678   56.39258  783.62500  756.50000  729.50000  702.87500  -12.66008 5327.47266   54.91449   21.60409
 2565.12061    9.13115 2565.12061   56.11987  784.12500  756.62500  728.37500  708.75000  -14.05952 5325.97070   54.95312   21.61783
 2565.04443    9.12775 2565.04443   55.76878  785.12500  757.25000  729.87500  708.25000  -13.53292 5326.40137   54.95444   21.63157
 2564.96826    9.12007 2564.96777   55.50172  784.75000  755.75000  735.00000  703.25000  -11.98439 5327.86816   54.92643   21.64530
 2564.89209    9.11226 2564.89160   55.62009  785.25000  757.50000  734.87500  702.12500  -10.98435 5328.79395   54.88499   21.65902
 2564.81592    9.10856 2564.81543   56.35686  783.62500  763.12500  730.37500  700.00000  -11.19026 5328.51270   54.83994   21.67273
 2564.73975    9.10980 2564.73926   57.75652  784.75000  762.25000  730.00000  700.00000  -12.67643 5326.93848   54.79375   21.68643
 2564.66357    9.11434 2564.66309   59.46074  790.37500  757.62500  727.37500  696.25000  -15.18733 5324.31738   54.74754   21.70012
 2564.58740    9.11815 2564.58691   60.93639  789.50000  756.50000  725.87500  697.50000  -17.68581 5321.68848   54.70863   21.71379
 2564.51074    9.11748 2564.51074   61.80038  785.12500  754.00000  722.87500  698.00000  -18.50614 5320.72949   54.69614   21.72747
 2564.43457    9.11275 2564.43457   62.18224  784.75000  753.50000  724.62500  698.12500  -16.21097 5322.89648   54.72159   21.74115
 2564.35840    9.10783 2564.35840   62.52161  782.00000  749.87500  725.00000  698.12500  -11.04008 5327.97070   54.77356   21.75484
 2564.28223    9.10789 2564.28223   63.16385  780.75000  752.00000  725.00000  698.00000   -4.24513 5334.71387   54.83206   21.76855
 2564.20605    9.11618 2564.20605   64.16780  777.62500  752.00000  725.25000  698.25000    2.22190 5341.17578   54.88507   21.78227
 2564.12988    9.13154 2564.12988   65.37410  779.37500  752.00000  724.75000  698.00000    6.17239 5345.15723   54.93275   21.79601
 2564.05371    9.14866 2564.05371   66.48164  780.00000  752.37500  725.25000  698.25000    6.04137 5345.06836   54.98528   21.80975
 2563.97754    9.16165 2563.97754   67.18178  780.25000  752.37500  725.37500  697.50000    1.55466 5340.60547   55.04668   21.82351
