~Version ---------------------------------------------------
VERS.   2.0 : CWLS log ASCII Standard -VERSION 2.0
WRAP.    NO : One line per depth step
DLM . SPACE : Column Data Section Delimiter
~Well ------------------------------------------------------
STRT.m         2656.86523 : START DEPTH
STOP.m         1480.87085 : STOP DEPTH
STEP.m           -0.07617 : STEP
NULL.             -999.25 : NULL VALUE
COMP.           PETROBRAS : COMPANY
WELL.       3-BRSA-19-RJS : WELL
FLD .              BS-500 : FIELD
LOC .                     : LOCATION
PROV.                     : PROVINCE
CNTY.                     : COUNTY
STAT.                     : STATE
CTRY.                     : COUNTRY
SRVC.                     : SERVICE COMPANY
DATE. 2004-06-30 00:00:00 : DATE
UWI .         74316019025 : UNIQUE WELL ID
API .         74316019025 : API NUMBER
~Curve Information -----------------------------------------
DEPT.m      : None
SPD .m/min  : None
DEPM.m      : None
GR  .gAPI   : None
S024.us     : None
S023.us     : None
S022.us     : None
S021.us     : None
TEN .lbf    : None
TTEN.lbf    : None
DT  .us/ft  : None
TT  .ms     : None
~Params ----------------------------------------------------
PROD   .                                  : 
PROG   .                         ['HOIS'] : 
RUN    .                           ['01'] : 
DESCENT.                               [] : 
VERSION.                                  : 
LINEAGE.       Python-converted from DLIS : 
ORFILE . ../inputs/3-brsa-19-rjs_mac.dlis : 
~Other -----------------------------------------------------
~ASCII -----------------------------------------------------
# ...
 2415.15918    9.47260 2415.15869   47.18269  797.00000  768.75000  740.12500  711.12500  -38.75089 5115.68750   55.61828   49.44102
 2415.08252    9.47949 2415.08252   47.68582  797.12500  769.25000  739.87500  713.12500  -24.07209 5130.21777   55.59230   49.45491
 2415.00635    9.49498 2415.00635   48.50700  797.00000  768.87500  739.62500  712.87500  -12.44040 5141.74316   55.58719   49.46881
 2414.93018    9.51063 2414.93018   49.39832  796.75000  766.75000  739.62500  711.37500   -3.86228 5150.24707   55.60962   49.48271
 2414.85400    9.51767 2414.85400   50.10667  796.75000  766.75000  739.87500  712.87500    2.08157 5156.13965   55.68872   49.49664
 2414.77783    9.51231 2414.77783   50.47267  796.37500  767.12500  739.75000  713.00000    5.46104 5159.48145   55.81879   49.51059
 2414.70166    9.49818 2414.70166   50.40624  796.50000  769.00000  740.25000  713.37500    6.80952 5160.79980   55.91593   49.52457
 2414.62549    9.48451 2414.62549   50.02075  796.62500  767.12500  740.12500  713.12500    6.71582 5160.68262   55.88978   49.53854
 2414.54932    9.48059 2414.54932   49.57656  796.50000  767.25000  740.00000  711.12500    5.14320 5159.08887   55.76224   49.55248
 2414.47314    9.48923 2414.47314   49.24728  796.87500  769.50000  740.25000  713.00000    1.70426 5155.61914   55.65629   49.56639
 2414.39697    9.50606 2414.39697   49.01519  796.75000  769.00000  739.75000  713.12500   -3.99037 5149.87207   55.64452   49.58031
 2414.32080    9.52114 2414.32080   48.77788  796.37500  766.62500  739.37500  711.12500  -11.82393 5141.94922   55.67011   49.59422
 2414.24463    9.52604 2414.24463   48.44853  795.37500  765.87500  738.75000  711.12500  -20.14470 5133.49805   55.64102   49.60813
 2414.16846    9.51850 2414.16797   48.07629  795.25000  765.75000  738.12500  710.50000  -27.01096 5126.46484   55.56413   49.62202
 2414.09229    9.50298 2414.09180   47.78862  795.75000  765.87500  738.87500  710.87500  -31.15143 5122.13574   55.55183   49.63591
 2414.01611    9.48737 2414.01562   47.69106  795.87500  766.12500  739.62500  713.12500  -31.98041 5121.11523   55.68279   49.64983
 2413.93994    9.47847 2413.93945   47.75155  795.62500  766.62500  739.37500  710.75000  -29.51426 5123.40234   55.88987   49.66380
 2413.86377    9.47912 2413.86328   47.89836  795.50000  766.25000  739.50000  710.75000  -24.65957 5128.10059   56.03680   49.67781
 2413.78760    9.48735 2413.78711   48.02682  796.25000  766.62500  739.50000  712.75000  -18.91980 5133.71191   56.07341   49.69183
 2413.71094    9.49885 2413.71094   48.04242  796.37500  766.75000  739.37500  711.12500  -13.58955 5138.93945   56.05115   49.70584
 2413.63477    9.50882 2413.63477   48.01779  796.25000  766.50000  739.75000  711.25000   -8.85738 5143.58984   56.03587   49.71985
 2413.55859    9.51397 2413.55859   48.02816  796.75000  766.87500  739.87500  713.00000   -3.77592 5148.61230   56.05956   49.73386
 2413.48242    9.51339 2413.48242   48.03925  796.37500  766.87500  739.50000  713.00000    1.89869 5154.24805   56.12788   49.74789
 2413.40625    9.50836 2413.40625   47.88823  796.50000  767.00000  739.87500  711.00000    7.67366 5160.00684   56.23695   49.76196
 2413.33008    9.49985 2413.33008   47.49557  796.62500  766.75000  739.87500  710.75000   12.38576 5164.71875   56.35669   49.77604
 2413.25391    9.49044 2413.25391   46.92513  796.62500  766.87500  739.50000  710.75000   14.07344 5166.41016   56.41940   49.79015
 2413.17773    9.48329 2413.17773   46.39478  796.37500  766.87500  739.12500  711.12500   11.54617 5163.87012   56.37572   49.80424
 2413.10156    9.48230 2413.10156   46.13573  796.62500  766.50000  739.12500  712.75000    5.33186 5157.61133   56.26379   49.81831
 2413.02539    9.48965 2413.02539   46.13601  796.87500  766.50000  739.50000  711.25000   -2.61389 5149.58301   56.17250   49.83235
 2412.94922    9.50398 2412.94873   46.19450  796.12500  766.62500  740.12500  713.12500   -9.95947 5142.12402   56.13466   49.84638
 2412.87305    9.51991 2412.87256   46.25314  795.37500  766.62500  739.75000  711.12500  -15.81286 5136.14258   56.09074   49.86040
 2412.79688    9.53012 2412.79639   46.36167  795.12500  766.62500  739.12500  710.62500  -21.41890 5130.40430   55.96992   49.87440
 2412.72070    9.52886 2412.72021   46.63412  795.37500  766.12500  738.62500  711.00000  -29.36536 5122.31445   55.80271   49.88835
 2412.64453    9.51558 2412.64453   47.17408  795.87500  766.50000  739.12500  711.50000  -39.99049 5111.52051   55.70776   49.90228
 2412.56836    9.49556 2412.56787   47.99292  796.37500  766.75000  739.87500  712.75000  -50.61169 5100.69336   55.75176   49.91621
 2412.49219    9.47770 2412.49170   48.92775  796.37500  766.75000  739.87500  713.00000  -57.29051 5093.77441   55.86485   49.93018
 2412.41553    9.47014 2412.41553   49.70934  796.25000  767.00000  739.87500  713.37500  -56.87527 5093.93652   55.92120   49.94416
 2412.33936    9.47433 2412.33936   50.11398  796.37500  767.00000  740.00000  713.37500  -48.53686 5102.03711   55.87975   49.95813
 2412.26318    9.48592 2412.26318   50.05592  796.50000  767.12500  740.25000  713.62500  -34.16847 5116.21680   55.80913   49.97208
 2412.18701    9.49712 2412.18701   49.65124  796.62500  768.75000  740.37500  713.62500  -17.49070 5132.77734   55.78319   49.98603
 2412.11084    9.50094 2412.11084   49.14114  796.62500  768.87500  740.25000  713.50000   -2.63551 5147.59375   55.79301   49.99998
 2412.03467    9.49456 2412.03467   48.61303  796.37500  767.37500  740.12500  712.62500    7.02896 5157.28613   55.78574   50.01392
 2411.95850    9.48036 2411.95850   48.11685  796.62500  767.25000  740.00000  711.37500   10.25752 5160.58496   55.75364   50.02786
 2411.88232    9.46518 2411.88232   47.75105  796.87500  768.87500  739.75000  711.50000    8.15871 5158.57422   55.74062   50.04180
 2411.80615    9.45715 2411.80615   47.50813  797.00000  769.00000  739.62500  712.87500    3.32373 5153.82227   55.77493   50.05574
 2411.72998    9.46226 2411.72998   47.27800  797.00000  767.12500  739.87500  713.62500   -1.60652 5148.95996   55.83012   50.06970
 2411.65381    9.48145 2411.65381   46.86374  797.25000  767.00000  740.00000  713.75000   -4.58914 5146.02441   55.86027   50.08366
 2411.57764    9.50852 2411.57764   46.15721  796.75000  767.25000  740.75000  713.62500   -4.56759 5146.07715   55.85246   50.09763
 2411.50146    9.53227 2411.50146   45.20917  796.62500  768.75000  740.62500  713.62500   -2.21923 5148.44531   55.82861   50.11159
 2411.42529    9.54303 2411.42529   44.16088  796.62500  769.25000  740.37500  714.00000    0.28743 5150.95703   55.80874   50.12553
 2411.34912    9.53612 2411.34863   43.24118  796.87500  769.37500  740.62500  714.00000    0.36549 5151.01855   55.78989   50.13948
 2411.27295    9.51587 2411.27246   42.62871  797.25000  768.87500  740.75000  714.25000   -4.82580 5145.77148   55.76366   50.15343
 2411.19678    9.49132 2411.19629   42.37879  797.50000  769.50000  740.87500  714.25000  -17.27452 5133.20801   55.73656   50.16736
 2411.12012    9.47239 2411.12012   42.40951  797.00000  769.50000  740.87500  714.00000  -35.39162 5114.90332   55.71786   50.18129
 2411.04395    9.46510 2411.04395   42.57024  797.37500  769.50000  740.87500  714.00000  -54.60040 5095.43555   55.70508   50.19522
 2410.96777    9.47009 2410.96777   42.82854  797.50000  769.62500  740.75000  714.00000  -69.03702 5080.69141   55.68541   50.20914
 2410.89160    9.48271 2410.89160   43.23877  797.37500  769.62500  740.75000  713.87500  -74.28075 5075.12793   55.66703   50.22305
 2410.81543    9.49519 2410.81543   43.84813  797.62500  769.75000  741.00000  714.12500  -69.75453 5079.35645   55.68983   50.23698
 2410.73926    9.50083 2410.73926   44.62675  797.37500  769.50000  740.62500  714.12500  -59.13187 5089.72461   55.76748   50.25092
 2410.66309    9.49657 2410.66309   45.44015  797.50000  769.62500  740.75000  714.00000  -47.08764 5101.56152   55.85649   50.26488
 2410.58691    9.48355 2410.58691   46.15047  797.37500  769.25000  740.75000  713.00000  -37.34216 5111.13867   55.91380   50.27886
