~Version ---------------------------------------------------
VERS.   2.0 : CWLS log ASCII Standard -VERSION 2.0
WRAP.    NO : One line per depth step
DLM . SPACE : Column Data Section Delimiter
~Well ------------------------------------------------------
STRT.m         2656.86523 : START DEPTH
STOP.m         1480.87085 : STOP DEPTH
STEP.m           -0.07617 : STEP
NULL.             -999.25 : NULL VALUE
COMP.           PETROBRAS : COMPANY
WELL.       3-BRSA-19-RJS : WELL
FLD .              BS-500 : FIELD
LOC .                     : LOCATION
PROV.                     : PROVINCE
CNTY.                     : COUNTY
STAT.                     : STATE
CTRY.                     : COUNTRY
SRVC.                     : SERVICE COMPANY
DATE. 2004-06-30 00:00:00 : DATE
UWI .         74316019025 : UNIQUE WELL ID
API .         74316019025 : API NUMBER
~Curve Information -----------------------------------------
DEPT.m      : None
SPD .m/min  : None
DEPM.m      : None
GR  .gAPI   : None
S024.us     : None
S023.us     : None
S022.us     : None
S021.us     : None
TEN .lbf    : None
TTEN.lbf    : None
DT  .us/ft  : None
TT  .ms     : None
~Params ----------------------------------------------------
PROD   .                                  : 
PROG   .                         ['HOIS'] : 
RUN    .                           ['01'] : 
DESCENT.                               [] : 
VERSION.                                  : 
LINEAGE.       Python-converted from DLIS : 
ORFILE . ../inputs/3-brsa-19-rjs_mac.dlis : 
~Other -----------------------------------------------------
~ASCII -----------------------------------------------------
# ...
 1810.89307    9.92734 1810.89282   34.90254  797.12500  769.12500  740.75000  713.75000   27.53110 4510.21680   55.49346  161.48352
 1810.81689    9.91898 1810.81665   33.93437  797.12500  769.12500  740.75000  713.87500   17.88002 4500.62793   55.48449  161.49738
 1810.74072    9.91277 1810.74048   33.22408  797.12500  769.12500  740.75000  713.87500    0.26744 4483.01562   55.48354  161.51126
 1810.66455    9.90995 1810.66431   32.99876  797.12500  769.25000  740.87500  713.75000  -20.70376 4461.96680   55.48194  161.52512
 1810.58813    9.91007 1810.58813   33.43587  797.25000  769.25000  740.75000  713.87500  -38.81474 4443.70996   55.47721  161.53900
 1810.51196    9.91238 1810.51196   34.50082  797.12500  769.25000  740.75000  713.87500  -49.24200 4433.09082   55.47207  161.55286
 1810.43579    9.91606 1810.43579   35.85011  797.12500  769.00000  740.62500  713.75000  -50.73235 4431.39648   55.47061  161.56674
 1810.35962    9.92032 1810.35962   37.07307  797.00000  769.00000  740.75000  713.75000  -45.94199 4435.99512   55.47350  161.58060
 1810.28345    9.92524 1810.28320   37.89635  796.87500  768.87500  740.62500  713.75000  -39.39693 4442.36816   55.47636  161.59448
 1810.20728    9.93095 1810.20703   38.32247  796.87500  768.87500  740.62500  713.62500  -35.08884 4446.51660   55.47563  161.60834
 1810.13110    9.93522 1810.13086   38.49270  797.00000  768.87500  740.62500  713.62500  -34.32207 4447.12012   55.47494  161.62222
 1810.05493    9.93608 1810.05469   38.55063  797.00000  769.00000  740.75000  713.75000  -35.33134 4445.93750   55.48124  161.63608
 1809.97852    9.93267 1809.97852   38.61234  797.00000  769.12500  740.75000  713.75000  -35.32990 4445.76270   55.49416  161.64996
 1809.90234    9.92633 1809.90234   38.78558  797.12500  769.12500  740.75000  713.87500  -32.62191 4448.30762   55.50394  161.66382
 1809.82617    9.91928 1809.82617   39.11301  797.00000  769.00000  740.75000  713.75000  -26.82663 4453.97461   55.50173  161.67770
 1809.75000    9.91379 1809.75000   39.63146  797.00000  769.00000  740.75000  713.75000  -18.88079 4461.83887   55.49013  161.69156
 1809.67383    9.91152 1809.67358   40.25898  797.00000  769.00000  740.75000  713.75000  -10.32555 4470.36328   55.48176  161.70544
 1809.59766    9.91170 1809.59741   40.82440  797.00000  769.00000  740.75000  713.75000   -2.71214 4477.98535   55.48542  161.71930
 1809.52148    9.91225 1809.52124   41.10202  797.00000  769.00000  740.62500  713.75000    2.52076 4483.24902   55.49643  161.73318
 1809.44531    9.91065 1809.44507   40.97191  796.87500  768.87500  740.62500  713.62500    3.99748 4484.75391   55.50519  161.74704
 1809.36914    9.90582 1809.36890   40.51252  796.87500  768.87500  740.62500  713.75000    0.45634 4481.21582   55.51019  161.76093
 1809.29272    9.89926 1809.29272   39.96614  796.87500  769.00000  740.62500  713.75000   -9.10658 4471.60645   55.51687  161.77481
 1809.21655    9.89537 1809.21655   39.59726  797.00000  769.00000  740.75000  713.75000  -24.98681 4455.61035   55.52731  161.78870
 1809.14038    9.89809 1809.14038   39.50674  797.00000  769.00000  740.75000  713.75000  -45.13670 4435.26074   55.53622  161.80258
 1809.06421    9.91080 1809.06396   39.55516  797.00000  769.00000  740.75000  713.75000  -65.00720 4415.10547   55.53680  161.81647
 1808.98804    9.93217 1808.98779   39.54556  797.00000  769.12500  740.75000  713.87500  -79.57884 4400.18359   55.52905  161.83035
 1808.91187    9.95678 1808.91162   39.50710  797.12500  769.12500  740.87500  713.87500  -85.24222 4394.13867   55.51961  161.84424
 1808.83569    9.97586 1808.83545   39.68105  797.12500  769.12500  740.87500  714.00000  -80.32744 4398.68359   55.51276  161.85812
 1808.75952    9.98207 1808.75928   40.22318  797.12500  769.12500  740.75000  714.00000  -65.26833 4413.42871   55.50661  161.87198
 1808.68335    9.97297 1808.68311   40.98183  797.00000  769.12500  740.87500  713.87500  -43.79731 4434.66602   55.49874  161.88586
 1808.60693    9.95179 1808.60693   41.62913  797.12500  769.12500  740.87500  714.00000  -20.61171 4457.70508   55.49069  161.89972
 1808.53076    9.92591 1808.53076   41.80255  797.12500  769.12500  740.75000  713.87500   -0.04808 4478.20215   55.48643  161.91360
 1808.45459    9.90386 1808.45435   41.31883  797.12500  769.25000  740.87500  713.87500   14.32667 4492.57129   55.48817  161.92746
 1808.37842    9.89274 1808.37817   40.29607  797.12500  769.12500  740.75000  713.87500   20.12180 4498.39648   55.49287  161.94135
 1808.30225    9.89566 1808.30225   39.08531  797.12500  769.12500  740.75000  713.87500   16.89607 4495.21094   55.49451  161.95520
 1808.22607    9.91006 1808.22583   38.08479  797.00000  769.12500  740.75000  713.87500    5.91847 4484.25879   55.49065  161.96909
 1808.14990    9.92905 1808.14966   37.60820  797.12500  769.12500  740.75000  713.87500   -9.70689 4468.62207   55.48407  161.98294
 1808.07373    9.94526 1808.07349   37.70611  797.00000  769.00000  740.75000  713.75000  -25.95970 4452.30566   55.47850  161.99683
 1807.99756    9.95142 1807.99731   38.22974  797.00000  769.12500  740.75000  713.75000  -39.73276 4438.41211   55.47574  162.01068
 1807.92114    9.94584 1807.92114   38.99978  797.00000  769.12500  740.75000  713.75000  -50.60223 4427.36523   55.47523  162.02457
 1807.84497    9.93253 1807.84497   39.78947  797.00000  769.12500  740.75000  713.75000  -58.14916 4419.58984   55.47564  162.03842
 1807.76880    9.91925 1807.76880   40.32324  797.12500  769.12500  740.75000  713.75000  -61.74333 4415.73145   55.47732  162.05231
 1807.69263    9.91327 1807.69263   40.47818  797.12500  769.12500  740.75000  713.87500  -60.78789 4416.41016   55.48140  162.06616
 1807.61646    9.91804 1807.61621   40.35268  797.12500  769.12500  740.75000  713.87500  -54.43923 4422.50000   55.48686  162.08005
 1807.54028    9.93089 1807.54004   40.21251  797.12500  769.00000  740.87500  713.87500  -42.96065 4433.76660   55.49040  162.09390
 1807.46411    9.94422 1807.46387   40.22529  797.00000  769.12500  740.75000  714.00000  -29.05365 4447.52637   55.48927  162.10779
 1807.38794    9.95051 1807.38770   40.35831  797.00000  769.12500  740.75000  713.87500  -16.74313 4459.75000   55.48364  162.12164
 1807.31152    9.94589 1807.31152   40.44862  797.00000  769.12500  740.87500  713.87500   -8.90941 4467.53711   55.47637  162.13553
 1807.23535    9.93120 1807.23535   40.36067  797.00000  769.12500  740.87500  713.87500   -6.31803 4470.09375   55.46998  162.14938
 1807.15918    9.91172 1807.15918   40.08190  797.12500  769.12500  740.87500  713.75000   -7.62683 4468.74121   55.46459  162.16327
 1807.08301    9.89455 1807.08301   39.76825  797.00000  769.12500  740.75000  713.75000  -10.14900 4466.16309   55.46014  162.17712
 1807.00684    9.88421 1807.00659   39.71925  797.00000  769.12500  740.62500  713.62500  -11.93852 4464.30957   55.45751  162.19101
 1806.93066    9.88328 1806.93042   40.15205  797.00000  769.00000  740.62500  713.62500  -12.54157 4463.64746   55.45757  162.20486
 1806.85449    9.89006 1806.85425   40.96287  797.00000  768.87500  740.62500  713.75000  -12.04656 4464.09570   55.46098  162.21875
 1806.77832    9.90069 1806.77808   41.84691  796.87500  768.87500  740.62500  713.62500  -10.56071 4465.54785   55.46761  162.23260
 1806.70215    9.91112 1806.70190   42.51172  796.87500  768.87500  740.62500  713.62500   -8.72156 4467.36133   55.47604  162.24649
 1806.62573    9.91907 1806.62573   42.84689  796.87500  768.87500  740.62500  713.62500   -7.98960 4468.06543   55.48427  162.26035
 1806.54956    9.92430 1806.54956   42.90467  797.00000  769.00000  740.62500  713.75000   -9.86434 4466.14551   55.49088  162.27423
 1806.47339    9.92797 1806.47339   42.70883  796.87500  769.00000  740.62500  713.62500  -15.26550 4460.67090   55.49510  162.28809
 1806.39722    9.93158 1806.39697   42.29408  797.00000  769.00000  740.75000  713.62500  -23.36406 4452.46387   55.49770  162.30197
 1806.32104    9.93538 1806.32080   41.73341  797.00000  769.00000  740.62500  713.75000  -31.87389 4443.81543   55.50267  162.31583
