~Version ---------------------------------------------------
VERS.   2.0 : CWLS log ASCII Standard -VERSION 2.0
WRAP.    NO : One line per depth step
DLM . SPACE : Column Data Section Delimiter
~Well ------------------------------------------------------
STRT.m         2656.86523 : START DEPTH
STOP.m         1480.87085 : STOP DEPTH
STEP.m           -0.07617 : STEP
NULL.             -999.25 : NULL VALUE
COMP.           PETROBRAS : COMPANY
WELL.       3-BRSA-19-RJS : WELL
FLD .              BS-500 : FIELD
LOC .                     : LOCATION
PROV.                     : PROVINCE
CNTY.                     : COUNTY
STAT.                     : STATE
CTRY.                     : COUNTRY
SRVC.                     : SERVICE COMPANY
DATE. 2004-06-30 00:00:00 : DATE
UWI .         74316019025 : UNIQUE WELL ID
API .         74316019025 : API NUMBER
~Curve Information -----------------------------------------
DEPT.m      : None
SPD .m/min  : None
DEPM.m      : None
GR  .gAPI   : None
S024.us     : None
S023.us     : None
S022.us     : None
S021.us     : None
TEN .lbf    : None
TTEN.lbf    : None
DT  .us/ft  : None
TT  .ms     : None
~Params ----------------------------------------------------
PROD   .                                  : 
PROG   .                         ['HOIS'] : 
RUN    .                           ['01'] : 
DESCENT.                               [] : 
VERSION.                                  : 
LINEAGE.       Python-converted from DLIS : 
ORFILE . ../inputs/3-brsa-19-rjs_mac.dlis : 
~Other -----------------------------------------------------
~ASCII -----------------------------------------------------
# ...
 2340.78760    9.54734 2340.78760   44.16882  795.12500  766.00000  739.12500  711.00000   -7.13577 5065.92188   56.50492   63.32819
 2340.71143    9.54870 2340.71143   44.38158  795.00000  765.87500  739.12500  711.12500  -12.17388 5060.79785   56.38215   63.34229
 2340.63525    9.55039 2340.63525   44.70463  795.25000  766.00000  739.00000  710.87500  -14.22161 5058.66113   56.21818   63.35634
 2340.55908    9.55351 2340.55908   45.08102  795.37500  766.25000  739.25000  710.75000  -11.32155 5061.49316   56.05306   63.37035
 2340.48291    9.55861 2340.48291   45.43189  795.25000  766.12500  738.87500  710.50000   -3.14990 5069.64160   55.91791   63.38433
 2340.40674    9.56342 2340.40674   45.61739  795.25000  766.00000  738.75000  710.37500    8.00256 5080.82715   55.83719   63.39828
 2340.33057    9.56560 2340.33057   45.48499  795.25000  766.00000  738.37500  710.37500   17.63478 5090.54199   55.82057   63.41224
 2340.25439    9.56262 2340.25439   44.98354  795.25000  765.75000  738.62500  710.50000   21.29282 5094.30273   55.87209   63.42621
 2340.17822    9.55450 2340.17822   44.20806  795.25000  765.62500  738.37500  710.25000   17.42093 5090.51953   55.99470   63.44021
 2340.10205    9.54259 2340.10205   43.28098  795.00000  765.25000  738.12500  710.00000    6.87018 5080.00977   56.17352   63.45425
 2340.02588    9.53037 2340.02539   42.39532  794.62500  765.37500  738.25000  710.00000   -8.10994 5065.00098   56.35535   63.46834
 2339.94971    9.52200 2339.94922   41.64438  794.75000  765.50000  738.25000  710.12500  -23.87705 5049.13281   56.48910   63.48246
 2339.87354    9.51955 2339.87305   40.98302  794.87500  765.50000  738.37500  710.25000  -36.11218 5036.73926   56.55301   63.49660
 2339.79736    9.52246 2339.79688   40.32163  794.75000  765.50000  738.62500  710.25000  -41.40388 5031.26172   56.55618   63.51073
 2339.72119    9.52748 2339.72070   39.62318  794.87500  765.50000  738.50000  710.12500  -38.44147 5034.04688   56.53362   63.52487
 2339.64453    9.53139 2339.64453   38.89265  794.87500  765.62500  738.50000  710.12500  -28.57053 5043.77832   56.51262   63.53900
 2339.56836    9.53235 2339.56836   38.20625  794.87500  765.62500  738.50000  710.25000  -15.39834 5056.86426   56.49718   63.55312
 2339.49219    9.53078 2339.49219   37.68791  795.00000  765.62500  738.25000  710.37500   -3.46405 5068.76562   56.48796   63.56725
 2339.41602    9.52858 2339.41602   37.39664  795.12500  765.62500  738.37500  710.37500    3.50994 5075.74219   56.49908   63.58138
 2339.33984    9.52840 2339.33984   37.34283  795.12500  765.50000  738.62500  710.50000    3.96347 5076.20996   56.53844   63.59550
 2339.26367    9.53002 2339.26367   37.53268  795.00000  765.50000  738.50000  710.50000   -0.86461 5071.38281   56.59050   63.60966
 2339.18750    9.53107 2339.18750   38.02549  794.87500  765.75000  738.62500  710.62500   -8.36913 5063.85254   56.62724   63.62381
 2339.11133    9.52843 2339.11133   38.89281  794.87500  765.62500  738.75000  710.75000  -15.67226 5056.49121   56.63284   63.63797
 2339.03516    9.52111 2339.03516   40.14093  795.25000  765.75000  738.87500  710.87500  -21.38578 5050.69141   56.62446   63.65212
 2338.95898    9.51082 2338.95898   41.66768  795.25000  766.00000  739.25000  710.87500  -25.72237 5046.24219   56.63503   63.66628
 2338.88281    9.50072 2338.88281   43.29977  795.37500  766.12500  739.25000  711.00000  -29.41364 5042.41797   56.66539   63.68045
 2338.80664    9.49387 2338.80615   44.90594  795.50000  766.37500  739.12500  711.12500  -32.85680 5038.82129   56.68789   63.69463
 2338.73047    9.49205 2338.72998   46.45410  795.62500  766.37500  739.25000  711.25000  -35.50347 5036.00488   56.68159   63.70879
 2338.65430    9.49588 2338.65430   47.92194  795.62500  766.25000  739.12500  711.12500  -36.07375 5035.26270   56.61209   63.72295
 2338.57812    9.50395 2338.57764   49.21777  795.87500  766.50000  739.62500  713.00000  -34.31116 5036.86230   56.40450   63.73705
 2338.50195    9.51333 2338.50146   50.18592  795.87500  766.50000  739.50000  711.00000  -30.99748 5040.03320   56.06897   63.75107
 2338.42578    9.52009 2338.42529   50.68602  795.75000  766.50000  739.62500  712.75000  -27.18641 5043.72754   55.81960   63.76502
 2338.34961    9.52164 2338.34912   50.64924  795.87500  766.37500  739.25000  711.12500  -23.38331 5047.43945   55.89331   63.77900
 2338.27295    9.51667 2338.27295   50.08833  795.62500  766.25000  739.25000  710.75000  -19.57840 5051.17188   56.37299   63.79309
 2338.19678    9.50701 2338.19678   49.12213  795.75000  766.25000  739.25000  710.62500  -15.48738 5055.20898   57.23595   63.80740
 2338.12061    9.49587 2338.12061   47.95022  794.87500  765.50000  738.62500  710.75000  -10.73405 5059.92480   58.53123   63.82203
 2338.04443    9.48835 2338.04443   46.81158  801.50000  764.75000  737.87500  710.00000   -6.40594 5064.22852   60.40347   63.83714
 2337.96826    9.48926 2337.96826   45.86113  794.12500  771.62500  741.25000  716.25000   -5.01553 5065.59668   62.79860   63.85284
 2337.89209    9.50024 2337.89209   45.12846  804.25000  764.37500  737.62500  715.12500   -9.17174 5061.39941   65.20267   63.86913
 2337.81592    9.51883 2337.81592   44.60776  796.00000  770.62500  739.00000  710.75000  -19.69184 5050.78809   66.85739   63.88585
 2337.73975    9.53873 2337.73975   44.22366  799.12500  771.00000  744.87500  720.87500  -33.95627 5036.36719   67.40048   63.90270
 2337.66357    9.55259 2337.66357   43.81289  813.37500  787.25000  762.37500  733.25000  -46.68945 5023.41504   67.03224   63.91946
 2337.58740    9.55478 2337.58740   43.18353  819.87500  787.25000  881.25000  713.62500  -53.38831 5016.45996   66.11418   63.93599
 2337.51123    9.54447 2337.51123   42.29868  795.37500  768.62500  740.37500  714.12500  -52.38319 5017.20508   64.78745   63.95219
 2337.43506    9.52508 2337.43506   41.30506  801.75000  772.75000  745.25000  717.12500  -45.17466 5024.17676   62.98299   63.96793
 2337.35889    9.50412 2337.35840   40.48483  801.75000  771.87500  742.75000  716.50000  -35.19485 5033.95508   60.83627   63.98314
 2337.28271    9.49030 2337.28223   39.99922  801.75000  771.87500  743.25000  716.50000  -26.21809 5042.76758   58.83836   63.99785
 2337.20654    9.48979 2337.20605   39.81544  801.50000  772.00000  743.00000  716.37500  -20.07455 5048.78223   57.49255   64.01222
 2337.13037    9.50146 2337.12988   39.78217  801.12500  771.87500  743.00000  716.37500  -16.69498 5052.05957   56.88683   64.02644
 2337.05420    9.51936 2337.05371   39.79371  801.50000  772.00000  743.12500  716.62500  -15.13524 5053.52832   56.74067   64.04062
 2336.97754    9.53491 2336.97754   39.85718  801.75000  772.25000  745.00000  716.75000  -14.69778 5053.86816   56.75117   64.05481
 2336.90137    9.54155 2336.90137   40.10576  801.87500  772.25000  745.25000  716.75000  -15.75533 5052.68555   56.76146   64.06900
 2336.82520    9.53752 2336.82520   40.70509  802.00000  772.25000  745.12500  716.75000  -18.95204 5049.32812   56.74324   64.08319
 2336.74902    9.52604 2336.74902   41.68453  802.00000  772.37500  745.00000  716.87500  -23.53928 5044.55469   56.69543   64.09737
 2336.67285    9.51415 2336.67285   42.80825  801.87500  772.25000  745.00000  716.87500  -27.53286 5040.37793   56.62267   64.11151
 2336.59668    9.50879 2336.59668   43.71817  801.87500  772.12500  745.00000  716.87500  -29.57266 5038.19141   56.54675   64.12566
 2336.52051    9.51298 2336.52051   44.18744  801.75000  772.12500  744.87500  716.75000  -29.98812 5037.67773   56.49052   64.13977
 2336.44434    9.52480 2336.44434   44.21121  802.00000  772.25000  745.00000  716.75000  -29.79628 5037.80566   56.45945   64.15388
 2336.36816    9.53930 2336.36816   43.96595  801.87500  772.37500  745.25000  716.87500  -30.32505 5037.21777   56.43204   64.16800
 2336.29199    9.55138 2336.29199   43.63184  801.75000  772.25000  745.12500  716.87500  -32.50941 5034.95117   56.38555   64.18210
 2336.21582    9.55911 2336.21582   43.32013  801.62500  772.00000  744.87500  716.75000  -36.03375 5031.30371   56.32122   64.19618
