~Version ---------------------------------------------------
VERS.   2.0 : CWLS log ASCII Standard -VERSION 2.0
WRAP.    NO : One line per depth step
DLM . SPACE : Column Data Section Delimiter
~Well ------------------------------------------------------
STRT.m         2656.86523 : START DEPTH
STOP.m         1480.87085 : STOP DEPTH
STEP.m           -0.07617 : STEP
NULL.             -999.25 : NULL VALUE
COMP.           PETROBRAS : COMPANY
WELL.       3-BRSA-19-RJS : WELL
FLD .              BS-500 : FIELD
LOC .                     : LOCATION
PROV.                     : PROVINCE
CNTY.                     : COUNTY
STAT.                     : STATE
CTRY.                     : COUNTRY
SRVC.                     : SERVICE COMPANY
DATE. 2004-06-30 00:00:00 : DATE
UWI .         74316019025 : UNIQUE WELL ID
API .         74316019025 : API NUMBER
~Curve Information -----------------------------------------
DEPT.m      : None
SPD .m/min  : None
DEPM.m      : None
GR  .gAPI   : None
S024.us     : None
S023.us     : None
S022.us     : None
S021.us     : None
TEN .lbf    : None
TTEN.lbf    : None
DT  .us/ft  : None
TT  .ms     : None
~Params ----------------------------------------------------
PROD   .                                  : 
PROG   .                         ['HOIS'] : 
RUN    .                           ['01'] : 
DESCENT.                               [] : 
VERSION.                                  : 
LINEAGE.       Python-converted from DLIS : 
ORFILE . ../inputs/3-brsa-19-rjs_mac.dlis : 
~Other -----------------------------------------------------
~ASCII -----------------------------------------------------
# ...
 2642.92090    8.11581 2642.92041 -999.25000 -999.25000 -999.25000 -999.25000 -999.25000  -36.51917 5249.82617 -999.25000 -999.25000
 2642.84473    8.11363 2642.84424 -999.25000 -999.25000 -999.25000 -999.25000 -999.25000  -16.96705 5269.23633 -999.25000 -999.25000
 2642.76855    8.11848 2642.76807 -999.25000 -999.25000 -999.25000 -999.25000 -999.25000   -2.14308 5283.98242 -999.25000 -999.25000
 2642.69238    8.12899 2642.69189 -999.25000 -999.25000 -999.25000 -999.25000 -999.25000    3.72997 5289.81934 -999.25000 -999.25000
 2642.61572    8.14142 2642.61572 -999.25000 -999.25000 -999.25000 -999.25000 -999.25000    0.26199 5286.32227 -999.25000 -999.25000
 2642.53955    8.15193 2642.53955 -999.25000 -999.25000 -999.25000 -999.25000 -999.25000   -9.39529 5276.61328 -999.25000 -999.25000
 2642.46338    8.15855 2642.46338 -999.25000 -999.25000 -999.25000 -999.25000 -999.25000  -20.01812 5265.89746 -999.25000 -999.25000
 2642.38721    8.16064 2642.38721 -999.25000 -999.25000 -999.25000 -999.25000 -999.25000  -26.49099 5259.29004 -999.25000 -999.25000
 2642.31104    8.15736 2642.31104 -999.25000 -999.25000 -999.25000 -999.25000 -999.25000  -26.53341 5259.08984 -999.25000 -999.25000
 2642.23486    8.14998 2642.23486 -999.25000 -999.25000 -999.25000 -999.25000 -999.25000  -21.31964 5264.14746 -999.25000 -999.25000
 2642.15869    8.14161 2642.15869 -999.25000 -999.25000 -999.25000 -999.25000 -999.25000  -13.78231 5271.55078 -999.25000 -999.25000
 2642.08252    8.13542 2642.08252 -999.25000 -999.25000 -999.25000 -999.25000 -999.25000   -6.68567 5278.54395 -999.25000 -999.25000
 2642.00635    8.13366 2642.00635 -999.25000 -999.25000 -999.25000 -999.25000 -999.25000   -0.98840 5284.17773 -999.25000 -999.25000
 2641.93018    8.13641 2641.93018 -999.25000 -999.25000 -999.25000 -999.25000 1181.62500    4.69146 5289.84375 -999.25000 -999.25000
 2641.85400    8.14322 2641.85400 -999.25000 -999.25000 -999.25000 -999.25000 1512.00000   12.90785 5298.11523 -999.25000 -999.25000
 2641.77783    8.15122 2641.77734 -999.25000 -999.25000 -999.25000 1244.37500 1512.00000   24.96327 5310.30762 -999.25000 -999.25000
 2641.70166    8.15702 2641.70117 -999.25000 -999.25000 -999.25000 4694.75000 1180.62500   39.15662 5324.72656 -999.25000 -999.25000
 2641.62549    8.15884 2641.62549 -999.25000 -999.25000 1309.12500 4694.75000 1180.50000   51.01210 5336.87500 -999.25000 -999.25000
 2641.54932    8.15791 2641.54883 -999.25000 -999.25000  348.56250 1243.25000 1181.12500   55.57922 5341.76074 -999.25000 -999.25000
 2641.47314    8.15702 2641.47266 -999.25000 1379.25000  348.56250 1242.50000 1186.37500   50.27160 5336.74219 -999.25000 -999.25000
 2641.39697    8.15855 2641.39648 -999.25000 1379.25000 1301.87500 1236.62500 1180.87500   36.15571 5322.84082 -999.25000 -999.25000
 2641.32080    8.16396 2641.32031 -999.25000 1379.25000 1298.50000 1234.25000 1173.62500   16.83844 5303.63965 -999.25000 -999.25000
 2641.24414    8.17263 2641.24414 -999.25000 1371.50000 1285.37500 1226.62500 1170.00000   -2.76961 5284.05273 -999.25000 -999.25000
 2641.16797    8.18130 2641.16797 -999.25000 1368.00000 1285.25000 1222.25000 1172.00000  -18.75643 5268.01172 -999.25000 -999.25000
 2641.09180    8.18546 2641.09180 -999.25000 1355.62500 1284.12500 1229.50000 1173.50000  -28.79940 5257.87207 -999.25000 -999.25000
 2641.01562    8.18244 2641.01562 -999.25000 1355.62500 1290.00000 1235.75000 1174.12500  -32.72083 5253.83789 -999.25000 -999.25000
 2640.93945    8.17249 2640.93945 -999.25000 1355.12500 1298.75000 1236.87500 1179.50000  -31.21467 5255.23730 -999.25000 -999.25000
 2640.86328    8.16074 2640.86328 -999.25000 1358.50000 1301.37500 1237.50000 1186.00000  -24.49445 5261.87500 -999.25000 -999.25000
 2640.78711    8.15296 2640.78711 -999.25000 1365.62500 1302.00000 1242.62500 1188.12500  -12.67459 5273.65918 -999.25000 -999.25000
 2640.71094    8.15284 2640.71094 -999.25000 1369.87500 1301.75000 1244.12500 1187.00000    2.37552 5288.74023 -999.25000 -999.25000
 2640.63477    8.16035 2640.63477 -999.25000 1365.75000 1301.87500 1244.00000 1180.12500   16.91334 5303.37793 -999.25000 -999.25000
 2640.55859    8.17206 2640.55859 -999.25000 1365.12500 1306.50000 1241.62500 1179.37500   25.92790 5312.54199 -999.25000 -999.25000
 2640.48242    8.18198 2640.48242 -999.25000 1364.25000 1302.12500 1229.50000 1174.37500   25.75308 5312.51953 -999.25000 -999.25000
 2640.40625    8.18517 2640.40625 -999.25000 1364.75000 1294.62500 1229.37500 1173.50000   16.48633 5303.35938 -999.25000 -999.25000
 2640.33008    8.18048 2640.32959 -999.25000 1363.00000 1284.62500 1228.50000 1171.62500    2.33173 5289.23242 -999.25000 -999.25000
 2640.25391    8.17109 2640.25342 -999.25000 1355.00000 1284.50000 1227.37500 1169.50000  -10.19539 5276.65723 -999.25000 -999.25000
 2640.17773    8.16121 2640.17725 -999.25000 1342.00000 1283.50000 1224.75000 1164.37500  -15.91908 5270.84668 -999.25000 -999.25000
 2640.10156    8.15393 2640.10107 -999.25000 1337.87500 1281.62500 1221.37500 1157.12500  -13.11495 5273.57324 -999.25000 -999.25000
 2640.02539    8.15098 2640.02490 -999.25000 1332.75000 1275.25000 1212.87500 1153.50000   -3.96794 5282.69434 -999.25000 -999.25000
 2639.94873    8.15240 2639.94873 -999.25000 1329.75000 1269.87500 1205.75000 1149.12500    7.74611 5294.45703 -999.25000 -999.25000
 2639.87256    8.15745 2639.87256 -999.25000 1323.87500 1261.00000 1202.87500 1144.00000   18.56775 5305.39551 -999.25000 -999.25000
 2639.79639    8.16371 2639.79639 -999.25000 1318.37500 1253.62500 1200.00000 1139.62500   26.71715 5313.71094 -999.25000 -999.25000
 2639.72021    8.16863 2639.72021 -999.25000 1309.12500 1250.87500 1192.62500 1136.00000   31.82027 5319.00195 -999.25000 -999.25000
 2639.64404    8.17017 2639.64404 -999.25000 1304.00000 1248.00000 1192.00000 1136.00000   33.98757 5321.35547 -999.25000 -999.25000
 2639.56787    8.16806 2639.56787 -999.25000 1296.00000 1248.00000 1192.00000 1136.00000   32.76078 5320.29297 -999.25000 -999.25000
 2639.49170    8.16447 2639.49170 -999.25000 1288.00000 1240.00000 1258.12500 1136.00000   28.15202 5315.81055 -999.25000 -999.25000
 2639.41553    8.16212 2639.41553 -999.25000 1374.12500 1315.87500 1254.25000 1195.00000   21.36550 5309.10938 -999.25000 -999.25000
 2639.33936    8.16285 2639.33936 -999.25000 1373.87500 1315.37500 1253.75000 1187.75000   15.06261 5302.85840 -999.25000 -999.25000
 2639.26318    8.16680 2639.26318 -999.25000 1374.00000 1315.12500 1252.25000 1186.25000   11.92080 5299.75586 -999.25000 -999.25000
 2639.18701    8.17202 2639.18701 -999.25000 1374.25000 1315.25000 1245.50000 1180.62500   12.50739 5300.39355 -999.25000 -999.25000
 2639.11084    8.17552 2639.11035 -999.25000 1374.50000 1309.50000 1244.25000 1180.37500   14.85015 5302.80762 -999.25000 -999.25000
 2639.03467    8.17780 2639.03418 -999.25000 1373.87500 1307.25000 1238.00000 1181.75000   16.53683 5304.58301 -999.25000 -999.25000
 2638.95850    8.18434 2638.95801 -999.25000 1371.50000 1302.12500 1237.62500 1185.50000   16.20684 5304.34082 -999.25000 -999.25000
 2638.88232    8.20326 2638.88184 -999.25000 1369.87500 1300.87500 1243.87500 1181.87500   13.86562 5302.07129 -999.25000 -999.25000
 2638.80615    8.23863 2638.80566 -999.25000 1370.37500 1301.75000 1245.25000 1180.87500   10.85545 5299.10840 -999.25000 -999.25000
 2638.72998    8.28903 2638.72949 -999.25000 1371.12500 1309.12500 1244.87500 1180.62500    8.40160 5296.68164 -999.25000 -999.25000
 2638.65332    8.34778 2638.65332 -999.25000 1373.12500 1315.00000 1244.50000 1180.75000    7.24138 5295.54199 -999.25000 -999.25000
 2638.57715    8.40650 2638.57715 -999.25000 1380.25000 1314.87500 1244.75000 1180.50000    7.29830 5295.61914 -999.25000 -999.25000
 2638.50098    8.45826 2638.50098 -999.25000 1386.12500 1310.12500 1245.12500 1180.50000    8.07888 5296.42676 -999.25000 -999.25000
 2638.42480    8.50080 2638.42480 -999.25000 1381.87500 1314.00000 1244.87500 1181.12500    8.97723 5297.35547 -999.25000 -999.25000
 2638.34863    8.53693 2638.34863 -999.25000 1380.62500 1314.25000 1244.75000 1181.87500    9.51686 5297.92871 -999.25000 -999.25000
