~Version ---------------------------------------------------
VERS.   2.0 : CWLS log ASCII Standard -VERSION 2.0
WRAP.    NO : One line per depth step
DLM . SPACE : Column Data Section Delimiter
~Well ------------------------------------------------------
STRT.m         2656.86523 : START DEPTH
STOP.m         1480.87085 : STOP DEPTH
STEP.m           -0.07617 : STEP
NULL.             -999.25 : NULL VALUE
COMP.           PETROBRAS : COMPANY
WELL.       3-BRSA-19-RJS : WELL
FLD .              BS-500 : FIELD
LOC .                     : LOCATION
PROV.                     : PROVINCE
CNTY.                     : COUNTY
STAT.                     : STATE
CTRY.                     : COUNTRY
SRVC.                     : SERVICE COMPANY
DATE. 2004-06-30 00:00:00 : DATE
UWI .         74316019025 : UNIQUE WELL ID
API .         74316019025 : API NUMBER
~Curve Information -----------------------------------------
DEPT.m      : None
SPD .m/min  : None
DEPM.m      : None
GR  .gAPI   : None
S024.us     : None
S023.us     : None
S022.us     : None
S021.us     : None
TEN .lbf    : None
TTEN.lbf    : None
DT  .us/ft  : None
TT  .ms     : None
~Params ----------------------------------------------------
PROD   .                                  : 
PROG   .                         ['HOIS'] : 
RUN    .                           ['01'] : 
DESCENT.                               [] : 
VERSION.                                  : 
LINEAGE.       Python-converted from DLIS : 
ORFILE . ../inputs/3-brsa-19-rjs_mac.dlis : 
~Other -----------------------------------------------------
~ASCII -----------------------------------------------------
# ...
 2489.53027    9.21803 2489.53027   44.51183  797.75000  770.75000  741.12500  714.87500  -23.56752 5203.68262   56.92683   35.59752
 2489.45410    9.20859 2489.45410   44.86062  797.75000  770.12500  740.87500  714.25000  -12.07350 5215.11914   56.59084   35.61167
 2489.37793    9.19839 2489.37744   45.06606  797.62500  770.62500  741.37500  714.62500   -4.51145 5222.64648   56.42961   35.62578
 2489.30176    9.19400 2489.30127   45.04723  797.75000  770.37500  741.00000  713.37500   -2.23491 5224.90039   56.42170   35.63988
 2489.22559    9.19983 2489.22510   44.82135  797.25000  769.87500  740.50000  713.12500   -4.04809 5223.06445   56.47505   35.65400
 2489.14893    9.21479 2489.14893   44.43643  797.12500  769.25000  739.75000  713.12500   -6.80635 5220.27930   56.49191   35.66812
 2489.07275    9.23289 2489.07275   43.91721  796.75000  769.00000  740.00000  714.12500   -8.82372 5218.23242   56.44915   35.68224
 2488.99658    9.24725 2488.99658   43.37971  797.00000  769.12500  740.37500  714.37500  -10.00420 5217.01953   56.40192   35.69633
 2488.92041    9.25397 2488.92041   42.96751  797.00000  770.12500  741.50000  715.12500  -10.42085 5216.57129   56.40930   35.71043
 2488.84424    9.25304 2488.84424   42.79166  797.37500  770.00000  741.37500  714.75000  -10.46378 5216.50195   56.46790   35.72456
 2488.76807    9.24777 2488.76807   42.85290  798.00000  771.00000  741.37500  714.75000  -11.98791 5214.95215   56.51921   35.73869
 2488.69189    9.24285 2488.69189   43.18208  797.75000  771.00000  741.25000  714.62500  -17.74901 5209.15234   56.51832   35.75282
 2488.61572    9.24191 2488.61572   43.81294  798.37500  771.12500  741.37500  714.50000  -28.34521 5198.48340   56.46740   35.76693
 2488.53955    9.24375 2488.53955   44.68040  798.25000  771.37500  741.62500  714.87500  -41.38539 5185.32520   56.38911   35.78103
 2488.46338    9.24523 2488.46338   45.55251  798.25000  771.12500  741.75000  715.12500  -52.97987 5173.56836   56.33210   35.79511
 2488.38721    9.24388 2488.38721   46.14027  798.75000  771.12500  742.00000  714.12500  -59.27945 5167.08105   56.35253   35.80920
 2488.31104    9.24020 2488.31104   46.16321  798.62500  770.87500  741.75000  714.12500  -58.20755 5167.96582   56.36534   35.82330
 2488.23486    9.23659 2488.23486   45.54232  798.25000  771.00000  741.12500  714.00000  -50.10017 5175.91113   56.17879   35.83734
 2488.15869    9.23454 2488.15820   44.39971  798.25000  771.00000  740.50000  714.00000  -37.25466 5188.63281   55.79659   35.85129
 2488.08252    9.23420 2488.08203   43.04272  798.25000  769.87500  740.37500  713.75000  -22.57447 5203.22949   55.50109   35.86517
 2488.00635    9.23580 2488.00586   41.73376  798.00000  769.62500  740.12500  713.62500   -8.76917 5216.98633   55.69290   35.87909
 2487.93018    9.23879 2487.92969   40.59469  797.12500  769.50000  740.50000  713.87500    2.57719 5228.31152   56.65208   35.89325
 2487.85400    9.24199 2487.85352   39.63376  797.50000  770.12500  740.75000  713.12500   10.26400 5235.99707   58.28878   35.90782
 2487.77734    9.24618 2487.77734   38.81598  796.50000  767.00000  737.37500  709.12500   11.60763 5237.34668   60.20715   35.92287
 2487.70117    9.25323 2487.70117   38.20407  795.87500 1032.00000  743.12500  714.25000    4.47647 5230.20020   62.08816   35.93840
 2487.62500    9.26328 2487.62500   37.99107  796.12500  772.25000  748.12500  717.12500   -9.92334 5215.73438   63.82493   35.95435
 2487.54883    9.27204 2487.54883   38.37199  797.37500  770.25000  740.75000  714.50000  -27.66401 5197.85742   65.30269   35.97068
 2487.47266    9.27412 2487.47266   39.35555  804.12500  775.00000  753.37500  718.87500  -43.73106 5181.58301   66.33488   35.98727
 2487.39648    9.26539 2487.39648   40.67594  821.62500  795.37500  764.75000  729.75000  -54.39133 5170.66113   66.65471   36.00393
 2487.32031    9.24700 2487.32031   41.93826  940.25000  914.50000  755.75000  739.37500  -59.13194 5165.63184   66.02594   36.02043
 2487.24414    9.22494 2487.24414   42.79761 1200.75000  770.62500  739.00000  730.37500  -59.57027 5164.90234   64.54878   36.03657
 2487.16797    9.20779 2487.16797   43.19923  804.25000  773.50000  741.00000  713.37500  -56.77953 5167.42383   62.62727   36.05222
 2487.09180    9.20336 2487.09180   43.35638  803.37500  774.00000  746.37500  718.62500  -50.88757 5173.08203   60.70413   36.06740
 2487.01562    9.21483 2487.01562   43.51300  803.75000  773.62500  746.87500  717.50000  -41.66556 5182.11719   59.10944   36.08218
 2486.93945    9.23703 2486.93896   43.85031  803.37500  773.75000  746.62500  717.50000  -29.35758 5194.29102   57.99342   36.09668
 2486.86328    9.25904 2486.86279   44.43789  804.25000  773.37500  746.75000  716.62500  -15.92883 5207.63574   57.28843   36.11100
 2486.78711    9.27125 2486.78662   45.14510  803.37500  773.12500  745.25000  716.00000   -3.95910 5219.56445   56.85380   36.12521
 2486.71094    9.26940 2486.71045   45.70142  802.62500  773.25000  742.75000  716.00000    5.16137 5228.67773   56.62614   36.13937
 2486.63477    9.25551 2486.63428   45.85444  803.00000  772.87500  742.87500  716.12500   10.77794 5234.31445   56.55336   36.15350
 2486.55859    9.23658 2486.55811   45.53460  803.00000  772.25000  745.00000  716.37500   12.57174 5236.14551   56.57376   36.16765
 2486.48193    9.22251 2486.48193   44.81298  803.00000  772.62500  745.25000  717.37500   10.30502 5233.91602   56.64495   36.18181
 2486.40576    9.21818 2486.40576   43.92731  803.00000  772.87500  745.62500  717.25000    3.25886 5226.88379   56.72942   36.19599
 2486.32959    9.22178 2486.32959   43.17054  802.75000  772.50000  745.87500  716.75000   -9.23831 5214.33984   56.78494   36.21019
 2486.25342    9.22744 2486.25342   42.72263  802.50000  772.50000  745.50000  716.87500  -26.41862 5197.02246   56.78872   36.22439
 2486.17725    9.22909 2486.17725   42.68078  802.75000  773.37500  745.87500  717.25000  -44.79678 5178.40625   56.76486   36.23858
 2486.10107    9.22372 2486.10107   43.02704  802.25000  772.37500  745.37500  717.37500  -59.46097 5163.41992   56.75237   36.25276
 2486.02490    9.21392 2486.02490   43.63419  802.37500  772.00000  745.25000  716.75000  -66.73819 5155.77734   56.76935   36.26695
 2485.94873    9.20566 2485.94873   44.33591  802.25000  772.50000  745.25000  717.12500  -66.14255 5156.01172   56.80980   36.28116
 2485.87256    9.20450 2485.87256   45.08347  802.12500  772.75000  745.00000  717.12500  -60.11276 5161.71484   56.85624   36.29537
 2485.79639    9.21206 2485.79639   45.82896  802.87500  772.75000  745.75000  717.12500  -51.70791 5169.84082   56.90043   36.30959
 2485.72021    9.22498 2485.72021   46.43932  803.00000  772.87500  746.00000  717.12500  -43.02383 5178.29199   56.94109   36.32383
 2485.64404    9.23712 2485.64404   46.84827  802.75000  772.87500  745.75000  717.50000  -34.79668 5186.32617   56.96669   36.33807
 2485.56787    9.24357 2485.56787   47.01942  802.87500  772.87500  745.50000  717.37500  -26.62374 5194.34375   56.96400   36.35231
 2485.49170    9.24360 2485.49121   46.89733  802.87500  772.75000  745.75000  715.50000  -18.32181 5202.53125   56.93937   36.36655
 2485.41553    9.23949 2485.41504   46.49213  802.62500  772.75000  745.75000  715.75000  -10.76240 5210.01758   56.91579   36.38078
 2485.33936    9.23660 2485.33887   45.87225  802.62500  773.62500  742.37500  725.50000   -5.41123 5215.33105   56.90519   36.39500
 2485.26318    9.23834 2485.26270   45.13251  803.25000  774.00000  744.50000  725.25000   -3.44475 5217.28125   56.88216   36.40923
 2485.18652    9.24439 2485.18652   44.42625  803.87500  771.87500  755.62500  717.87500   -4.37608 5216.33789   56.80269   36.42342
 2485.11035    9.25131 2485.11035   43.89555  803.12500  772.25000  753.62500  717.87500   -6.62448 5214.07031   56.67398   36.43759
 2485.03418    9.25459 2485.03418   43.59598  801.62500  781.62500  746.25000  710.00000   -8.71695 5211.94824   56.57249   36.45174
 2484.95801    9.25213 2484.95801   43.58474  800.87500  781.00000  747.62500  715.25000  -10.42454 5210.19824   56.56660   36.46588
