~Version ---------------------------------------------------
VERS.   2.0 : CWLS log ASCII Standard -VERSION 2.0
WRAP.    NO : One line per depth step
DLM . SPACE : Column Data Section Delimiter
~Well ------------------------------------------------------
STRT.0.1 in 1028280.00000 : START DEPTH
STOP.0.1 in  996610.00000 : STOP DEPTH
STEP.0.1 in     -10.00000 : STEP
NULL.             -999.25 : NULL VALUE
COMP.           PETROBRAS : COMPANY
WELL.      4-BRSA-163-RJS : WELL
FLD .            ALBACORA : FIELD
LOC .                     : LOCATION
PROV.                     : PROVINCE
CNTY.                     : COUNTY
STAT.                     : STATE
CTRY.                     : COUNTRY
SRVC.        Schlumberger : SERVICE COMPANY
DATE. 2002-09-06 08:57:32 : DATE
UWI .         74281020128 : UNIQUE WELL ID
API .         74281020128 : API NUMBER
~Curve Information -----------------------------------------
TDEP.0.1 in  : 1-Inch Frame Depth
IDWD.0.1 in  : Integrated Depth Wheel Depth
TIME.ms      : 1-Inch Frame Time
SCD .0.1 in  : Speed Corrected Depth
~Params ----------------------------------------------------
PROD   .                                                                                                                                                       OP : 
PROG   . ['CMR-A: Combinable Magnetic Resonance Tool - A', 'SGTN: Scintillation Gamma-Ray - N', 'DTCH: DTS Telemetry Tool', 'LEHQT: Logging Equipment Head - QT'] : 
RUN    .                                                                                                                                                    ['1'] : 
DESCENT.                                                                                                                                                   ['-1'] : 
VERSION.                                                                                                                                                 10C0-306 : 
LINEAGE.                                                                                                                               Python-converted from DLIS : 
ORFILE .                                                                                                                        ../inputs/4-brsa-163-rjs_cmr.dlis : 
~Other -----------------------------------------------------
~ASCII -----------------------------------------------------
# ...
 1005930.00000 1005928.06250 1673.00000 1005889.87500
 1005920.00000 1005918.06250 1619.00000 1005873.18750
 1005910.00000 1005908.06250 1618.00000 1005873.43750
 1005900.00000 1005898.06250 1606.00000 1005802.81250
 1005890.00000 1005888.06250 1689.00000 1005795.87500
 1005880.00000 1005878.06250 1673.00000 1005796.62500
 1005870.00000 1005868.06250 1658.00000 1005797.31250
 1005860.00000 1005858.06250 1624.00000 1005790.37500
 1005850.00000 1005848.06250 1573.00000 1005790.81250
 1005840.00000 1005838.00000 1522.00000 1005757.81250
 1005830.00000 1005828.00000 1541.00000 1005750.68750
 1005820.00000 1005818.00000 1558.00000 1005751.18750
 1005810.00000 1005808.00000 1622.00000 1005751.56250
 1005800.00000 1005798.00000 1554.00000 1005747.56250
 1005790.00000 1005788.00000 1606.00000 1005747.75000
 1005780.00000 1005778.00000 1590.00000 1005673.12500
 1005770.00000 1005768.00000 1604.00000 1005664.93750
 1005760.00000 1005758.00000 1602.00000 1005665.75000
 1005750.00000 1005748.00000 1556.00000 1005666.31250
 1005740.00000 1005738.00000 1519.00000 1005666.81250
 1005730.00000 1005728.00000 1539.00000 1005667.18750
 1005720.00000 1005718.00000 1554.00000 1005667.43750
 1005710.00000 1005708.00000 1489.00000 1005667.68750
 1005700.00000 1005698.00000 1507.00000 1005667.75000
 1005690.00000 1005688.06250 1484.00000 1005667.37500
 1005680.00000 1005678.06250 1554.00000 1005635.62500
 1005670.00000 1005668.06250 1554.00000 1005635.93750
 1005660.00000 1005658.06250 1568.00000 1005539.31250
 1005650.00000 1005648.06250 1520.00000 1005527.81250
 1005640.00000 1005638.06250 1552.00000 1005528.75000
 1005630.00000 1005628.06250 1550.00000 1005529.62500
 1005620.00000 1005618.06250 1568.00000 1005530.18750
 1005610.00000 1005608.06250 1534.00000 1005530.68750
 1005600.00000 1005598.06250 1535.00000 1005531.00000
 1005590.00000 1005588.06250 1553.00000 1005521.25000
 1005580.00000 1005578.00000 1532.00000 1005517.50000
 1005570.00000 1005568.00000 1538.00000 1005517.31250
 1005560.00000 1005558.00000 1558.00000 1005496.68750
 1005550.00000 1005548.00000 1592.00000 1005496.93750
 1005540.00000 1005538.00000 1540.00000 1005497.25000
 1005530.00000 1005528.00000 1556.00000 1005497.43750
 1005520.00000 1005518.00000 1472.00000 1005497.62500
 1005510.00000 1005508.00000 1520.00000 1005464.87500
 1005500.00000 1005498.00000 1543.00000 1005459.37500
 1005490.00000 1005488.00000 1457.00000 1005458.18750
 1005480.00000 1005478.00000 1526.00000 1005432.18750
 1005470.00000 1005468.00000 1458.00000 1005425.62500
 1005460.00000 1005458.00000 1439.00000 1005418.31250
 1005450.00000 1005448.00000 1477.00000 1005418.68750
 1005440.00000 1005438.00000 1424.00000 1005373.75000
 1005430.00000 1005428.06250 1407.00000 1005373.75000
 1005420.00000 1005418.06250 1441.00000 1005364.87500
 1005410.00000 1005408.06250 1458.00000 1005349.50000
 1005400.00000 1005398.06250 1456.00000 1005349.87500
 1005390.00000 1005388.06250 1474.00000 1005344.31250
 1005380.00000 1005378.06250 1490.00000 1005330.37500
 1005370.00000 1005368.06250 1510.00000 1005330.68750
 1005360.00000 1005358.06250 1492.00000 1005305.50000
 1005350.00000 1005348.06250 1492.00000 1005291.25000
 1005340.00000 1005338.06250 1476.00000 1005291.62500
 1005330.00000 1005328.06250 1524.00000 1005292.12500
 1005320.00000 1005318.00000 1524.00000 1005292.43750
 1005310.00000 1005308.00000 1525.00000 1005292.68750
 1005300.00000 1005298.00000 1473.00000 1005158.12500
 1005290.00000 1005288.00000 1505.00000 1005111.62500
 1005280.00000 1005278.00000 1521.00000 1005113.12500
 1005270.00000 1005268.00000 1524.00000 1005114.31250
 1005260.00000 1005258.00000 1520.00000 1005115.37500
 1005250.00000 1005248.00000 1505.00000 1005116.06250
 1005240.00000 1005238.00000 1489.00000 1005116.62500
 1005230.00000 1005228.00000 1539.00000 1005117.06250
 1005220.00000 1005218.00000 1519.00000 1005117.37500
 1005210.00000 1005208.00000 1540.00000 1005117.68750
 1005200.00000 1005198.00000 1540.00000 1005117.87500
 1005190.00000 1005188.00000 1473.00000 1005118.06250
 1005180.00000 1005178.06250 1453.00000 1005118.12500
 1005170.00000 1005168.06250 1508.00000 1005114.31250
 1005160.00000 1005158.06250 1558.00000 1005114.37500
 1005150.00000 1005148.06250 1456.00000 1005114.50000
 1005140.00000 1005138.06250 1524.00000 1005090.18750
 1005130.00000 1005128.06250 1522.00000 1005090.06250
 1005120.00000 1005118.06250 1575.00000 1005090.25000
 1005110.00000 1005108.06250 1541.00000 1005054.87500
 1005100.00000 1005098.06250 1505.00000 1005053.06250
 1005090.00000 1005088.06250 1521.00000 1005053.37500
 1005080.00000 1005078.06250 1488.00000 1005020.50000
 1005070.00000 1005068.06250 1472.00000 1005020.12500
 1005060.00000 1005058.00000 1490.00000 1005020.50000
 1005050.00000 1005048.00000 1537.00000 1005020.87500
 1005040.00000 1005038.00000 1522.00000 1005021.18750
 1005030.00000 1005028.00000 1552.00000 1004996.93750
 1005020.00000 1005018.00000 1539.00000 1004952.62500
 1005010.00000 1005008.00000 1436.00000 1004953.18750
 1005000.00000 1004998.00000 1520.00000 1004953.81250
 1004990.00000 1004988.00000 1488.00000 1004942.43750
 1004980.00000 1004978.00000 1522.00000 1004940.43750
 1004970.00000 1004968.00000 1504.00000 1004940.81250
 1004960.00000 1004958.00000 1484.00000 1004941.12500
 1004950.00000 1004948.00000 1488.00000 1004941.31250
 1004940.00000 1004938.00000 1436.00000 1004919.06250
 1004930.00000 1004928.00000 1472.00000 1004836.68750
 1004920.00000 1004918.06250 1522.00000 1004836.62500
 1004910.00000 1004908.06250 1571.00000 1004837.50000
 1004900.00000 1004898.06250 1553.00000 1004828.56250
 1004890.00000 1004888.06250 1553.00000 1004828.37500
 1004880.00000 1004878.06250 1535.00000 1004828.75000
 1004870.00000 1004868.06250 1554.00000 1004829.12500
 1004860.00000 1004858.06250 1554.00000 1004829.43750
 1004850.00000 1004848.06250 1568.00000 1004829.62500
 1004840.00000 1004838.06250 1536.00000 1004816.25000
 1004830.00000 1004828.06250 1556.00000 1004793.43750
 1004820.00000 1004818.06250 1539.00000 1004793.87500
 1004810.00000 1004808.06250 1541.00000 1004742.43750
 1004800.00000 1004798.00000 1556.00000 1004740.50000
 1004790.00000 1004788.00000 1524.00000 1004741.06250
 1004780.00000 1004778.00000 1607.00000 1004735.68750
 1004770.00000 1004768.00000 1555.00000 1004736.00000
 1004760.00000 1004758.00000 1506.00000 1004736.37500
 1004750.00000 1004748.00000 1456.00000 1004736.56250
 1004740.00000 1004738.00000 1507.00000 1004713.56250
 1004730.00000 1004728.00000 1539.00000 1004712.62500
 1004720.00000 1004718.00000 1489.00000 1004636.18750
 1004710.00000 1004708.00000 1523.00000 1004634.12500
 1004700.00000 1004698.00000 1520.00000 1004634.87500
 1004690.00000 1004688.00000 1537.00000 1004596.12500
 1004680.00000 1004678.00000 1473.00000 1004594.00000
 1004670.00000 1004668.00000 1471.00000 1004594.68750
 1004660.00000 1004658.06250 1485.00000 1004584.00000
 1004650.00000 1004648.06250 1523.00000 1004584.37500
 1004640.00000 1004638.06250 1508.00000 1004584.81250
 1004630.00000 1004628.06250 1490.00000 1004567.68750
 1004620.00000 1004618.06250 1553.00000 1004567.75000
 1004610.00000 1004608.06250 1550.00000 1004568.18750
 1004600.00000 1004598.06250 1570.00000 1004521.43750
 1004590.00000 1004588.06250 1470.00000 1004490.37500
 1004580.00000 1004578.06250 1486.00000 1004491.06250
 1004570.00000 1004568.06250 1550.00000 1004491.62500
 1004560.00000 1004558.06250 1554.00000 1004492.25000
 1004550.00000 1004548.06250 1506.00000 1004492.50000
 1004540.00000 1004538.00000 1519.00000 1004489.81250
 1004530.00000 1004528.00000 1539.00000 1004489.93750
 1004520.00000 1004518.00000 1520.00000 1004490.12500
 1004510.00000 1004508.00000 1506.00000 1004457.50000
 1004500.00000 1004498.00000 1502.00000 1004457.31250
 1004490.00000 1004488.00000 1576.00000 1004457.75000
 1004480.00000 1004478.00000 1538.00000 1004448.31250
 1004470.00000 1004468.00000 1574.00000 1004433.62500
 1004460.00000 1004458.00000 1553.00000 1004433.68750
 1004450.00000 1004448.00000 1573.00000 1004401.68750
