~Version ---------------------------------------------------
VERS.   2.0 : CWLS log ASCII Standard -VERSION 2.0
WRAP.    NO : One line per depth step
DLM . SPACE : Column Data Section Delimiter
~Well ------------------------------------------------------
STRT.0.1 in 1028280.00000 : START DEPTH
STOP.0.1 in  996610.00000 : STOP DEPTH
STEP.0.1 in     -10.00000 : STEP
NULL.             -999.25 : NULL VALUE
COMP.           PETROBRAS : COMPANY
WELL.      4-BRSA-163-RJS : WELL
FLD .            ALBACORA : FIELD
LOC .                     : LOCATION
PROV.                     : PROVINCE
CNTY.                     : COUNTY
STAT.                     : STATE
CTRY.                     : COUNTRY
SRVC.        Schlumberger : SERVICE COMPANY
DATE. 2002-09-06 08:57:32 : DATE
UWI .         74281020128 : UNIQUE WELL ID
API .         74281020128 : API NUMBER
~Curve Information -----------------------------------------
TDEP.0.1 in  : 1-Inch Frame Depth
IDWD.0.1 in  : Integrated Depth Wheel Depth
TIME.ms      : 1-Inch Frame Time
SCD .0.1 in  : Speed Corrected Depth
~Params ----------------------------------------------------
PROD   .                                                                                                                                                       OP : 
PROG   . ['CMR-A: Combinable Magnetic Resonance Tool - A', 'SGTN: Scintillation Gamma-Ray - N', 'DTCH: DTS Telemetry Tool', 'LEHQT: Logging Equipment Head - QT'] : 
RUN    .                                                                                                                                                    ['1'] : 
DESCENT.                                                                                                                                                   ['-1'] : 
VERSION.                                                                                                                                                 10C0-306 : 
LINEAGE.                                                                                                                               Python-converted from DLIS : 
ORFILE .                                                                                                                        ../inputs/4-brsa-163-rjs_cmr.dlis : 
~Other -----------------------------------------------------
~ASCII -----------------------------------------------------
# ...
 1026790.00000 1026788.00000 1438.00000 1026746.56250
 1026780.00000 1026778.00000 1404.00000 1026710.68750
 1026770.00000 1026768.00000 1474.00000 1026685.12500
 1026760.00000 1026758.00000 1384.00000 1026685.93750
 1026750.00000 1026748.00000 1405.00000 1026686.50000
 1026740.00000 1026738.00000 1405.00000 1026685.81250
 1026730.00000 1026728.00000 1420.00000 1026670.75000
 1026720.00000 1026718.00000 1436.00000 1026669.00000
 1026710.00000 1026708.00000 1439.00000 1026619.87500
 1026700.00000 1026698.00000 1405.00000 1026612.12500
 1026690.00000 1026688.00000 1438.00000 1026612.75000
 1026680.00000 1026678.00000 1437.00000 1026613.25000
 1026670.00000 1026667.93750 1456.00000 1026613.75000
 1026660.00000 1026657.93750 1437.00000 1026614.00000
 1026650.00000 1026647.93750 1440.00000 1026596.81250
 1026640.00000 1026637.93750 1417.00000 1026596.93750
 1026630.00000 1026627.93750 1420.00000 1026597.18750
 1026620.00000 1026617.93750 1441.00000 1026597.50000
 1026610.00000 1026607.93750 1420.00000 1026597.56250
 1026600.00000 1026597.93750 1471.00000 1026597.75000
 1026590.00000 1026587.93750 1453.00000 1026529.25000
 1026580.00000 1026578.00000 1380.00000 1026474.37500
 1026570.00000 1026568.00000 1416.00000 1026475.25000
 1026560.00000 1026558.00000 1402.00000 1026476.06250
 1026550.00000 1026548.00000 1484.00000 1026476.75000
 1026540.00000 1026538.00000 1400.00000 1026477.25000
 1026530.00000 1026528.00000 1416.00000 1026477.62500
 1026520.00000 1026518.00000 1384.00000 1026477.93750
 1026510.00000 1026508.00000 1402.00000 1026478.18750
 1026500.00000 1026498.00000 1436.00000 1026478.37500
 1026490.00000 1026488.00000 1436.00000 1026478.50000
 1026480.00000 1026478.00000 1470.00000 1026478.68750
 1026470.00000 1026468.00000 1454.00000 1026434.56250
 1026460.00000 1026458.00000 1386.00000 1026386.43750
 1026450.00000 1026448.00000 1434.00000 1026386.87500
 1026440.00000 1026438.00000 1402.00000 1026387.43750
 1026430.00000 1026428.00000 1420.00000 1026388.06250
 1026420.00000 1026418.06250 1438.00000 1026388.43750
 1026410.00000 1026407.93750 1355.00000 1026309.31250
 1026400.00000 1026397.93750 1421.00000 1026299.12500
 1026390.00000 1026387.93750 1466.00000 1026300.00000
 1026380.00000 1026377.93750 1437.00000 1026300.75000
 1026370.00000 1026367.93750 1404.00000 1026301.25000
 1026360.00000 1026357.93750 1417.00000 1026301.62500
 1026350.00000 1026347.93750 1436.00000 1026302.00000
 1026340.00000 1026337.93750 1423.00000 1026302.18750
 1026330.00000 1026328.00000 1400.00000 1026302.50000
 1026320.00000 1026318.00000 1439.00000 1026255.50000
 1026310.00000 1026308.00000 1488.00000 1026241.18750
 1026300.00000 1026298.00000 1454.00000 1026241.75000
 1026290.00000 1026288.00000 1436.00000 1026207.25000
 1026280.00000 1026278.00000 1388.00000 1026200.50000
 1026270.00000 1026268.00000 1438.00000 1026201.06250
 1026260.00000 1026258.00000 1470.00000 1026201.56250
 1026250.00000 1026248.00000 1404.00000 1026201.93750
 1026240.00000 1026238.00000 1422.00000 1026202.25000
 1026230.00000 1026228.00000 1454.00000 1026202.56250
 1026220.00000 1026218.00000 1388.00000 1026189.00000
 1026210.00000 1026208.00000 1435.00000 1026188.50000
 1026200.00000 1026198.00000 1471.00000 1026122.00000
 1026190.00000 1026188.00000 1473.00000 1026107.06250
 1026180.00000 1026178.00000 1369.00000 1026107.87500
 1026170.00000 1026168.00000 1420.00000 1026108.43750
 1026160.00000 1026158.06250 1421.00000 1026108.93750
 1026150.00000 1026147.93750 1419.00000 1026109.31250
 1026140.00000 1026137.93750 1454.00000 1026109.56250
 1026130.00000 1026127.93750 1384.00000 1026037.31250
 1026120.00000 1026117.93750 1353.00000 1026018.75000
 1026110.00000 1026107.93750 1387.00000 1026019.50000
 1026100.00000 1026097.93750 1420.00000 1026008.06250
 1026090.00000 1026087.93750 1422.00000 1026008.68750
 1026080.00000 1026077.93750 1393.00000 1025991.81250
 1026070.00000 1026068.00000 1406.00000 1025975.18750
 1026060.00000 1026058.00000 1439.00000 1025975.68750
 1026050.00000 1026048.00000 1371.00000 1025976.18750
 1026040.00000 1026038.00000 1407.00000 1025976.43750
 1026030.00000 1026028.00000 1425.00000 1025970.68750
 1026020.00000 1026018.00000 1405.00000 1025961.87500
 1026010.00000 1026008.00000 1405.00000 1025953.18750
 1026000.00000 1025998.00000 1390.00000 1025953.50000
 1025990.00000 1025988.00000 1439.00000 1025945.25000
 1025980.00000 1025978.00000 1404.00000 1025916.37500
 1025970.00000 1025968.00000 1441.00000 1025916.68750
 1025960.00000 1025958.00000 1403.00000 1025892.43750
 1025950.00000 1025948.00000 1406.00000 1025866.50000
 1025940.00000 1025938.00000 1388.00000 1025867.00000
 1025930.00000 1025928.00000 1422.00000 1025862.18750
 1025920.00000 1025918.00000 1418.00000 1025857.87500
 1025910.00000 1025908.00000 1422.00000 1025858.25000
 1025900.00000 1025898.06250 1438.00000 1025858.50000
 1025890.00000 1025887.93750 1438.00000 1025822.00000
 1025880.00000 1025877.93750 1404.00000 1025819.81250
 1025870.00000 1025867.93750 1402.00000 1025820.18750
 1025860.00000 1025857.93750 1416.00000 1025802.00000
 1025850.00000 1025847.93750 1382.00000 1025801.43750
 1025840.00000 1025837.93750 1382.00000 1025754.75000
 1025830.00000 1025827.93750 1367.00000 1025707.93750
 1025820.00000 1025817.93750 1366.00000 1025708.50000
 1025810.00000 1025808.00000 1345.00000 1025709.37500
 1025800.00000 1025798.00000 1384.00000 1025709.93750
 1025790.00000 1025788.00000 1368.00000 1025710.43750
 1025780.00000 1025778.00000 1438.00000 1025710.81250
 1025770.00000 1025768.00000 1434.00000 1025711.06250
 1025760.00000 1025758.00000 1400.00000 1025711.37500
 1025750.00000 1025748.00000 1420.00000 1025711.56250
 1025740.00000 1025738.00000 1400.00000 1025649.37500
 1025730.00000 1025728.00000 1420.00000 1025648.12500
 1025720.00000 1025718.00000 1402.00000 1025648.68750
 1025710.00000 1025708.00000 1452.00000 1025644.75000
 1025700.00000 1025698.00000 1387.00000 1025645.06250
 1025690.00000 1025688.00000 1384.00000 1025645.43750
 1025680.00000 1025678.00000 1384.00000 1025645.62500
 1025670.00000 1025668.00000 1521.00000 1025645.81250
 1025660.00000 1025658.00000 1454.00000 1025636.56250
 1025650.00000 1025648.00000 1470.00000 1025568.12500
 1025640.00000 1025638.06250 1420.00000 1025563.62500
 1025630.00000 1025627.93750 1369.00000 1025564.31250
 1025620.00000 1025617.93750 1436.00000 1025543.81250
 1025610.00000 1025607.93750 1451.00000 1025543.93750
 1025600.00000 1025597.93750 1474.00000 1025543.06250
 1025590.00000 1025587.93750 1490.00000 1025505.50000
 1025580.00000 1025577.93750 1456.00000 1025505.75000
 1025570.00000 1025567.93750 1488.00000 1025506.25000
 1025560.00000 1025557.93750 1455.00000 1025506.25000
 1025550.00000 1025548.00000 1439.00000 1025506.56250
 1025540.00000 1025538.00000 1420.00000 1025473.00000
 1025530.00000 1025528.00000 1403.00000 1025434.43750
 1025520.00000 1025518.00000 1403.00000 1025429.56250
 1025510.00000 1025508.00000 1456.00000 1025430.06250
 1025500.00000 1025498.00000 1438.00000 1025430.50000
 1025490.00000 1025488.00000 1473.00000 1025430.87500
 1025480.00000 1025478.00000 1425.00000 1025431.31250
 1025470.00000 1025468.00000 1404.00000 1025421.56250
 1025460.00000 1025458.00000 1422.00000 1025421.50000
 1025450.00000 1025448.00000 1470.00000 1025384.06250
 1025440.00000 1025438.00000 1418.00000 1025322.06250
 1025430.00000 1025428.00000 1440.00000 1025322.87500
 1025420.00000 1025418.00000 1504.00000 1025323.62500
 1025410.00000 1025408.00000 1422.00000 1025324.18750
 1025400.00000 1025398.00000 1422.00000 1025324.68750
 1025390.00000 1025388.00000 1472.00000 1025325.06250
 1025380.00000 1025378.06250 1423.00000 1025312.68750
 1025370.00000 1025367.93750 1475.00000 1025311.43750
 1025360.00000 1025357.93750 1494.00000 1025311.68750
 1025350.00000 1025347.93750 1461.00000 1025230.87500
 1025340.00000 1025337.93750 1495.00000 1025229.43750
 1025330.00000 1025327.93750 1443.00000 1025230.18750
 1025320.00000 1025317.93750 1558.00000 1025230.75000
 1025310.00000 1025307.93750 1493.00000 1025231.25000
