~Version ---------------------------------------------------
VERS.   2.0 : CWLS log ASCII Standard -VERSION 2.0
WRAP.    NO : One line per depth step
DLM . SPACE : Column Data Section Delimiter
~Well ------------------------------------------------------
STRT.0.1 in 1028280.00000 : START DEPTH
STOP.0.1 in  996610.00000 : STOP DEPTH
STEP.0.1 in     -10.00000 : STEP
NULL.             -999.25 : NULL VALUE
COMP.           PETROBRAS : COMPANY
WELL.      4-BRSA-163-RJS : WELL
FLD .            ALBACORA : FIELD
LOC .                     : LOCATION
PROV.                     : PROVINCE
CNTY.                     : COUNTY
STAT.                     : STATE
CTRY.                     : COUNTRY
SRVC.        Schlumberger : SERVICE COMPANY
DATE. 2002-09-06 08:57:32 : DATE
UWI .         74281020128 : UNIQUE WELL ID
API .         74281020128 : API NUMBER
~Curve Information -----------------------------------------
TDEP.0.1 in  : 1-Inch Frame Depth
IDWD.0.1 in  : Integrated Depth Wheel Depth
TIME.ms      : 1-Inch Frame Time
SCD .0.1 in  : Speed Corrected Depth
~Params ----------------------------------------------------
PROD   .                                                                                                                                                       OP : 
PROG   . ['CMR-A: Combinable Magnetic Resonance Tool - A', 'SGTN: Scintillation Gamma-Ray - N', 'DTCH: DTS Telemetry Tool', 'LEHQT: Logging Equipment Head - QT'] : 
RUN    .                                                                                                                                                    ['1'] : 
DESCENT.                                                                                                                                                   ['-1'] : 
VERSION.                                                                                                                                                 10C0-306 : 
LINEAGE.                                                                                                                               Python-converted from DLIS : 
ORFILE .                                                                                                                        ../inputs/4-brsa-163-rjs_cmr.dlis : 
~Other -----------------------------------------------------
~ASCII -----------------------------------------------------
# ...
 1002950.00000 1002948.00000 1637.00000 1002919.43750
 1002940.00000 1002938.00000 1573.00000 1002891.68750
 1002930.00000 1002928.00000 1623.00000 1002875.43750
 1002920.00000 1002918.00000 1607.00000 1002875.68750
 1002910.00000 1002908.00000 1589.00000 1002839.56250
 1002900.00000 1002898.00000 1621.00000 1002823.87500
 1002890.00000 1002888.00000 1758.00000 1002824.68750
 1002880.00000 1002878.00000 1763.00000 1002825.25000
 1002870.00000 1002868.00000 1712.00000 1002825.62500
 1002860.00000 1002858.00000 1612.00000 1002825.93750
 1002850.00000 1002848.00000 1661.00000 1002811.62500
 1002840.00000 1002838.06250 1628.00000 1002811.50000
 1002830.00000 1002828.06250 1594.00000 1002723.75000
 1002820.00000 1002818.06250 1595.00000 1002681.43750
 1002810.00000 1002808.06250 1694.00000 1002682.68750
 1002800.00000 1002798.06250 1680.00000 1002683.68750
 1002790.00000 1002788.06250 1695.00000 1002684.43750
 1002780.00000 1002778.06250 1679.00000 1002684.93750
 1002770.00000 1002768.06250 1663.00000 1002685.31250
 1002760.00000 1002758.06250 1612.00000 1002685.68750
 1002750.00000 1002748.06250 1614.00000 1002685.87500
 1002740.00000 1002738.06250 1646.00000 1002686.06250
 1002730.00000 1002728.06250 1644.00000 1002672.87500
 1002720.00000 1002718.06250 1664.00000 1002672.43750
 1002710.00000 1002708.00000 1646.00000 1002672.62500
 1002700.00000 1002698.00000 1698.00000 1002663.37500
 1002690.00000 1002688.00000 1658.00000 1002663.37500
 1002680.00000 1002678.00000 1608.00000 1002663.50000
 1002670.00000 1002668.00000 1644.00000 1002658.93750
 1002660.00000 1002658.00000 1645.00000 1002657.81250
 1002650.00000 1002648.00000 1659.00000 1002657.93750
 1002640.00000 1002638.00000 1694.00000 1002612.43750
 1002630.00000 1002628.00000 1627.00000 1002586.18750
 1002620.00000 1002618.00000 1625.00000 1002586.81250
 1002610.00000 1002608.00000 1747.00000 1002556.18750
 1002600.00000 1002598.00000 1745.00000 1002554.12500
 1002590.00000 1002588.00000 1658.00000 1002554.68750
 1002580.00000 1002578.06250 1560.00000 1002513.06250
 1002570.00000 1002568.06250 1627.00000 1002513.37500
 1002560.00000 1002558.06250 1647.00000 1002513.93750
 1002550.00000 1002548.06250 1644.00000 1002476.12500
 1002540.00000 1002538.06250 1646.00000 1002443.87500
 1002530.00000 1002528.06250 1628.00000 1002443.93750
 1002520.00000 1002518.06250 1592.00000 1002443.25000
 1002510.00000 1002508.06250 1624.00000 1002443.25000
 1002500.00000 1002498.06250 1627.00000 1002443.68750
 1002490.00000 1002488.06250 1610.00000 1002444.06250
 1002480.00000 1002478.06250 1663.00000 1002444.25000
 1002470.00000 1002468.06250 1677.00000 1002444.43750
 1002460.00000 1002458.06250 1713.00000 1002372.43750
 1002450.00000 1002448.00000 1696.00000 1002372.31250
 1002440.00000 1002438.00000 1606.00000 1002371.68750
 1002430.00000 1002428.00000 1576.00000 1002344.06250
 1002420.00000 1002418.00000 1608.00000 1002344.25000
 1002410.00000 1002408.00000 1627.00000 1002344.75000
 1002400.00000 1002398.00000 1611.00000 1002345.12500
 1002390.00000 1002388.00000 1660.00000 1002345.43750
 1002380.00000 1002378.00000 1696.00000 1002345.68750
 1002370.00000 1002368.00000 1644.00000 1002310.62500
 1002360.00000 1002358.00000 1610.00000 1002306.50000
 1002350.00000 1002348.00000 1608.00000 1002306.87500
 1002340.00000 1002338.00000 1608.00000 1002288.31250
 1002330.00000 1002328.06250 1680.00000 1002288.25000
 1002320.00000 1002318.06250 1664.00000 1002288.62500
 1002310.00000 1002308.06250 1666.00000 1002288.75000
 1002300.00000 1002298.06250 1734.00000 1002288.93750
 1002290.00000 1002288.06250 1715.00000 1002289.12500
 1002280.00000 1002278.06250 1681.00000 1002241.68750
 1002270.00000 1002268.06250 1700.00000 1002214.62500
 1002260.00000 1002258.06250 1738.00000 1002214.50000
 1002250.00000 1002248.06250 1702.00000 1002186.93750
 1002240.00000 1002238.06250 1682.00000 1002165.50000
 1002230.00000 1002228.06250 1684.00000 1002165.12500
 1002220.00000 1002218.06250 1652.00000 1002121.56250
 1002210.00000 1002208.06250 1718.00000 1002121.68750
 1002200.00000 1002198.06250 1736.00000 1002122.31250
 1002190.00000 1002188.00000 1684.00000 1002122.81250
 1002180.00000 1002178.00000 1635.00000 1002123.18750
 1002170.00000 1002168.00000 1668.00000 1002123.50000
 1002160.00000 1002158.00000 1717.00000 1002110.62500
 1002150.00000 1002148.00000 1670.00000 1002104.93750
 1002140.00000 1002138.00000 1718.00000 1002105.25000
 1002130.00000 1002128.00000 1667.00000 1002088.50000
 1002120.00000 1002118.00000 1633.00000 1002082.00000
 1002110.00000 1002108.00000 1600.00000 1002082.25000
 1002100.00000 1002098.00000 1582.00000 1002055.56250
 1002090.00000 1002088.00000 1686.00000 1002054.50000
 1002080.00000 1002078.00000 1666.00000 1002054.87500
 1002070.00000 1002068.06250 1711.00000 1001990.43750
 1002060.00000 1002058.06250 1661.00000 1001990.43750
 1002050.00000 1002048.06250 1728.00000 1001991.12500
 1002040.00000 1002038.06250 1659.00000 1001991.62500
 1002030.00000 1002028.06250 1593.00000 1001992.00000
 1002020.00000 1002018.06250 1660.00000 1001992.31250
 1002010.00000 1002008.06250 1631.00000 1001959.06250
 1002000.00000 1001998.06250 1727.00000 1001930.00000
 1001990.00000 1001988.06250 1676.00000 1001930.68750
 1001980.00000 1001978.06250 1594.00000 1001931.18750
 1001970.00000 1001968.06250 1660.00000 1001931.56250
 1001960.00000 1001958.06250 1660.00000 1001931.81250
 1001950.00000 1001948.06250 1695.00000 1001927.68750
 1001940.00000 1001938.06250 1659.00000 1001923.37500
 1001930.00000 1001928.00000 1662.00000 1001923.56250
 1001920.00000 1001918.00000 1746.00000 1001923.75000
 1001910.00000 1001908.00000 1644.00000 1001872.12500
 1001900.00000 1001898.00000 1697.00000 1001871.00000
 1001890.00000 1001888.00000 1696.00000 1001840.43750
 1001880.00000 1001878.00000 1712.00000 1001819.56250
 1001870.00000 1001868.00000 1763.00000 1001820.25000
 1001860.00000 1001858.00000 1678.00000 1001800.62500
 1001850.00000 1001848.00000 1729.00000 1001794.00000
 1001840.00000 1001838.00000 1713.00000 1001794.50000
 1001830.00000 1001828.00000 1730.00000 1001792.06250
 1001820.00000 1001818.00000 1731.00000 1001792.00000
 1001810.00000 1001808.06250 1767.00000 1001792.25000
 1001800.00000 1001798.06250 1746.00000 1001764.18750
 1001790.00000 1001788.06250 1679.00000 1001709.87500
 1001780.00000 1001778.06250 1663.00000 1001710.37500
 1001770.00000 1001768.06250 1730.00000 1001711.06250
 1001760.00000 1001758.06250 1762.00000 1001704.81250
 1001750.00000 1001748.06250 1614.00000 1001705.18750
 1001740.00000 1001738.06250 1681.00000 1001682.00000
 1001730.00000 1001728.06250 1731.00000 1001677.18750
 1001720.00000 1001718.06250 1699.00000 1001677.68750
 1001710.00000 1001708.06250 1683.00000 1001671.37500
 1001700.00000 1001698.06250 1648.00000 1001667.43750
 1001690.00000 1001688.06250 1646.00000 1001667.68750
 1001680.00000 1001678.06250 1646.00000 1001642.68750
 1001670.00000 1001668.00000 1662.00000 1001601.93750
 1001660.00000 1001658.00000 1700.00000 1001602.12500
 1001650.00000 1001648.00000 1684.00000 1001602.75000
 1001640.00000 1001638.00000 1670.00000 1001601.87500
 1001630.00000 1001628.00000 1648.00000 1001602.12500
 1001620.00000 1001618.00000 1700.00000 1001602.43750
 1001610.00000 1001608.00000 1685.00000 1001597.75000
 1001600.00000 1001598.00000 1617.00000 1001556.87500
 1001590.00000 1001588.00000 1720.00000 1001519.18750
 1001580.00000 1001578.00000 1770.00000 1001513.93750
 1001570.00000 1001568.00000 1754.00000 1001514.56250
 1001560.00000 1001558.00000 1703.00000 1001515.18750
 1001550.00000 1001548.06250 1737.00000 1001506.62500
 1001540.00000 1001538.06250 1786.00000 1001500.93750
 1001530.00000 1001528.06250 1769.00000 1001493.56250
 1001520.00000 1001518.06250 1703.00000 1001452.75000
 1001510.00000 1001508.06250 1700.00000 1001453.25000
 1001500.00000 1001498.06250 1770.00000 1001453.75000
 1001490.00000 1001488.06250 1770.00000 1001407.81250
 1001480.00000 1001478.06250 1754.00000 1001408.50000
 1001470.00000 1001468.06250 1804.00000 1001404.75000
