~Version ---------------------------------------------------
VERS.   2.0 : CWLS log ASCII Standard -VERSION 2.0
WRAP.    NO : One line per depth step
DLM . SPACE : Column Data Section Delimiter
~Well ------------------------------------------------------
STRT.0.1 in 1028280.00000 : START DEPTH
STOP.0.1 in  996610.00000 : STOP DEPTH
STEP.0.1 in     -10.00000 : STEP
NULL.             -999.25 : NULL VALUE
COMP.           PETROBRAS : COMPANY
WELL.      4-BRSA-163-RJS : WELL
FLD .            ALBACORA : FIELD
LOC .                     : LOCATION
PROV.                     : PROVINCE
CNTY.                     : COUNTY
STAT.                     : STATE
CTRY.                     : COUNTRY
SRVC.        Schlumberger : SERVICE COMPANY
DATE. 2002-09-06 08:57:32 : DATE
UWI .         74281020128 : UNIQUE WELL ID
API .         74281020128 : API NUMBER
~Curve Information -----------------------------------------
TDEP.0.1 in  : 1-Inch Frame Depth
IDWD.0.1 in  : Integrated Depth Wheel Depth
TIME.ms      : 1-Inch Frame Time
SCD .0.1 in  : Speed Corrected Depth
~Params ----------------------------------------------------
PROD   .                                                                                                                                                       OP : 
PROG   . ['CMR-A: Combinable Magnetic Resonance Tool - A', 'SGTN: Scintillation Gamma-Ray - N', 'DTCH: DTS Telemetry Tool', 'LEHQT: Logging Equipment Head - QT'] : 
RUN    .                                                                                                                                                    ['1'] : 
DESCENT.                                                                                                                                                   ['-1'] : 
VERSION.                                                                                                                                                 10C0-306 : 
LINEAGE.                                                                                                                               Python-converted from DLIS : 
ORFILE .                                                                                                                        ../inputs/4-brsa-163-rjs_cmr.dlis : 
~Other -----------------------------------------------------
~ASCII -----------------------------------------------------
# ...
 1010400.00000 1010398.00000 1444.00000 1010386.12500
 1010390.00000 1010388.00000 1470.00000 1010386.37500
 1010380.00000 1010378.00000 1410.00000 1010377.25000
 1010370.00000 1010368.00000 1460.00000 1010377.06250
 1010360.00000 1010358.06250 1442.00000 1010283.43750
 1010350.00000 1010348.06250 1424.00000 1010265.50000
 1010340.00000 1010338.06250 1444.00000 1010266.43750
 1010330.00000 1010328.06250 1478.00000 1010264.81250
 1010320.00000 1010318.06250 1462.00000 1010265.25000
 1010310.00000 1010308.06250 1444.00000 1010265.75000
 1010300.00000 1010298.06250 1478.00000 1010255.56250
 1010290.00000 1010288.06250 1416.00000 1010255.56250
 1010280.00000 1010278.06250 1428.00000 1010255.93750
 1010270.00000 1010268.06250 1458.00000 1010256.12500
 1010260.00000 1010258.00000 1430.00000 1010250.18750
 1010250.00000 1010248.00000 1496.00000 1010223.06250
 1010240.00000 1010238.00000 1477.00000 1010162.12500
 1010230.00000 1010228.00000 1493.00000 1010160.68750
 1010220.00000 1010218.00000 1517.00000 1010161.50000
 1010210.00000 1010208.00000 1518.00000 1010160.12500
 1010200.00000 1010198.00000 1501.00000 1010160.25000
 1010190.00000 1010188.00000 1434.00000 1010160.62500
 1010180.00000 1010178.00000 1433.00000 1010142.12500
 1010170.00000 1010168.00000 1451.00000 1010141.18750
 1010160.00000 1010158.00000 1486.00000 1010141.50000
 1010150.00000 1010148.00000 1484.00000 1010131.87500
 1010140.00000 1010138.00000 1537.00000 1010109.68750
 1010130.00000 1010128.00000 1468.00000 1010108.87500
 1010120.00000 1010118.00000 1469.00000 1010091.56250
 1010110.00000 1010108.00000 1469.00000 1010058.06250
 1010100.00000 1010098.06250 1503.00000 1010058.12500
 1010090.00000 1010088.06250 1484.00000 1010058.75000
 1010080.00000 1010078.06250 1452.00000 1010058.93750
 1010070.00000 1010068.06250 1486.00000 1010041.31250
 1010060.00000 1010058.06250 1501.00000 1009985.56250
 1010050.00000 1010048.06250 1517.00000 1009985.37500
 1010040.00000 1010038.06250 1468.00000 1009986.06250
 1010030.00000 1010028.06250 1400.00000 1009986.56250
 1010020.00000 1010018.06250 1451.00000 1009986.93750
 1010010.00000 1010008.06250 1433.00000 1009987.18750
 1010000.00000 1009998.00000 1463.00000 1009957.68750
 1009990.00000 1009988.00000 1479.00000 1009945.37500
 1009980.00000 1009978.00000 1484.00000 1009945.75000
 1009970.00000 1009968.00000 1498.00000 1009933.68750
 1009960.00000 1009958.00000 1497.00000 1009928.31250
 1009950.00000 1009948.00000 1497.00000 1009928.68750
 1009940.00000 1009938.00000 1482.00000 1009844.18750
 1009930.00000 1009928.00000 1498.00000 1009840.56250
 1009920.00000 1009918.00000 1429.00000 1009841.31250
 1009910.00000 1009908.00000 1467.00000 1009842.00000
 1009900.00000 1009898.00000 1466.00000 1009842.43750
 1009890.00000 1009888.00000 1465.00000 1009842.81250
 1009880.00000 1009878.00000 1431.00000 1009812.93750
 1009870.00000 1009868.00000 1448.00000 1009809.00000
 1009860.00000 1009858.00000 1546.00000 1009809.37500
 1009850.00000 1009848.00000 1480.00000 1009749.25000
 1009840.00000 1009838.06250 1414.00000 1009729.06250
 1009830.00000 1009828.06250 1446.00000 1009729.81250
 1009820.00000 1009818.06250 1430.00000 1009730.50000
 1009810.00000 1009808.06250 1430.00000 1009731.06250
 1009800.00000 1009798.06250 1460.00000 1009731.43750
 1009790.00000 1009788.06250 1447.00000 1009731.75000
 1009780.00000 1009778.06250 1514.00000 1009732.00000
 1009770.00000 1009768.06250 1544.00000 1009732.18750
 1009760.00000 1009758.06250 1547.00000 1009685.12500
 1009750.00000 1009748.06250 1446.00000 1009676.81250
 1009740.00000 1009738.00000 1557.00000 1009677.31250
 1009730.00000 1009728.00000 1463.00000 1009676.37500
 1009720.00000 1009718.00000 1445.00000 1009675.12500
 1009710.00000 1009708.00000 1464.00000 1009675.37500
 1009700.00000 1009698.00000 1493.00000 1009675.56250
 1009690.00000 1009688.00000 1559.00000 1009665.87500
 1009680.00000 1009678.00000 1523.00000 1009666.00000
 1009670.00000 1009668.00000 1506.00000 1009608.68750
 1009660.00000 1009658.00000 1460.00000 1009597.06250
 1009650.00000 1009648.00000 1476.00000 1009597.62500
 1009640.00000 1009638.00000 1548.00000 1009587.81250
 1009630.00000 1009628.00000 1544.00000 1009573.81250
 1009620.00000 1009618.00000 1461.00000 1009574.06250
 1009610.00000 1009608.00000 1447.00000 1009572.00000
 1009600.00000 1009598.00000 1544.00000 1009569.56250
 1009590.00000 1009588.00000 1446.00000 1009569.87500
 1009580.00000 1009578.06250 1478.00000 1009498.37500
 1009570.00000 1009568.06250 1512.00000 1009485.00000
 1009560.00000 1009558.06250 1462.00000 1009485.75000
 1009550.00000 1009548.06250 1480.00000 1009486.43750
 1009540.00000 1009538.06250 1464.00000 1009486.93750
 1009530.00000 1009528.06250 1482.00000 1009487.31250
 1009520.00000 1009518.06250 1533.00000 1009487.56250
 1009510.00000 1009508.06250 1433.00000 1009487.75000
 1009500.00000 1009498.06250 1534.00000 1009488.00000
 1009490.00000 1009488.06250 1434.00000 1009438.87500
 1009480.00000 1009478.00000 1417.00000 1009401.18750
 1009470.00000 1009468.00000 1482.00000 1009401.75000
 1009460.00000 1009458.00000 1504.00000 1009386.93750
 1009450.00000 1009448.00000 1436.00000 1009380.43750
 1009440.00000 1009438.00000 1453.00000 1009380.87500
 1009430.00000 1009428.00000 1452.00000 1009381.37500
 1009420.00000 1009418.00000 1468.00000 1009381.75000
 1009410.00000 1009408.00000 1467.00000 1009381.93750
 1009400.00000 1009398.00000 1416.00000 1009362.62500
 1009390.00000 1009388.00000 1501.00000 1009336.37500
 1009380.00000 1009378.00000 1366.00000 1009336.50000
 1009370.00000 1009368.00000 1484.00000 1009314.00000
 1009360.00000 1009358.00000 1435.00000 1009242.18750
 1009350.00000 1009348.00000 1451.00000 1009242.75000
 1009340.00000 1009338.00000 1452.00000 1009243.62500
 1009330.00000 1009328.00000 1486.00000 1009244.31250
 1009320.00000 1009318.06250 1465.00000 1009244.81250
 1009310.00000 1009308.06250 1483.00000 1009245.18750
 1009300.00000 1009298.06250 1414.00000 1009245.56250
 1009290.00000 1009288.06250 1412.00000 1009245.75000
 1009280.00000 1009278.06250 1430.00000 1009245.93750
 1009270.00000 1009268.06250 1474.00000 1009237.50000
 1009260.00000 1009258.06250 1512.00000 1009237.37500
 1009250.00000 1009248.06250 1512.00000 1009219.12500
 1009240.00000 1009238.06250 1495.00000 1009173.50000
 1009230.00000 1009228.06250 1477.00000 1009173.93750
 1009220.00000 1009218.00000 1477.00000 1009174.43750
 1009210.00000 1009208.00000 1473.00000 1009174.81250
 1009200.00000 1009198.00000 1478.00000 1009175.12500
 1009190.00000 1009188.00000 1446.00000 1009121.00000
 1009180.00000 1009178.00000 1426.00000 1009115.81250
 1009170.00000 1009168.00000 1478.00000 1009116.00000
 1009160.00000 1009158.00000 1480.00000 1009116.50000
 1009150.00000 1009148.00000 1494.00000 1009116.87500
 1009140.00000 1009138.00000 1509.00000 1009117.12500
 1009130.00000 1009128.00000 1481.00000 1009111.93750
 1009120.00000 1009118.00000 1474.00000 1009054.68750
 1009110.00000 1009108.00000 1494.00000 1009053.62500
 1009100.00000 1009098.00000 1410.00000 1009015.93750
 1009090.00000 1009088.00000 1475.00000 1008995.75000
 1009080.00000 1009078.00000 1525.00000 1008996.50000
 1009070.00000 1009068.00000 1523.00000 1008997.18750
 1009060.00000 1009058.06250 1558.00000 1008997.75000
 1009050.00000 1009048.06250 1522.00000 1008998.12500
 1009040.00000 1009038.06250 1528.00000 1008998.43750
 1009030.00000 1009028.06250 1525.00000 1008998.62500
 1009020.00000 1009018.06250 1544.00000 1008998.81250
 1009010.00000 1009008.06250 1508.00000 1008952.68750
 1009000.00000 1008998.06250 1442.00000 1008881.37500
 1008990.00000 1008988.06250 1508.00000 1008881.93750
 1008980.00000 1008978.06250 1509.00000 1008882.81250
 1008970.00000 1008968.06250 1539.00000 1008883.50000
 1008960.00000 1008958.00000 1460.00000 1008883.93750
 1008950.00000 1008948.00000 1458.00000 1008884.37500
 1008940.00000 1008938.00000 1478.00000 1008867.93750
 1008930.00000 1008928.00000 1474.00000 1008867.43750
 1008920.00000 1008918.00000 1493.00000 1008867.81250
