~Version ---------------------------------------------------
VERS.   2.0 : CWLS log ASCII Standard -VERSION 2.0
WRAP.    NO : One line per depth step
DLM . SPACE : Column Data Section Delimiter
~Well ------------------------------------------------------
STRT.0.1 in 1028280.00000 : START DEPTH
STOP.0.1 in  996610.00000 : STOP DEPTH
STEP.0.1 in     -10.00000 : STEP
NULL.             -999.25 : NULL VALUE
COMP.           PETROBRAS : COMPANY
WELL.      4-BRSA-163-RJS : WELL
FLD .            ALBACORA : FIELD
LOC .                     : LOCATION
PROV.                     : PROVINCE
CNTY.                     : COUNTY
STAT.                     : STATE
CTRY.                     : COUNTRY
SRVC.        Schlumberger : SERVICE COMPANY
DATE. 2002-09-06 08:57:32 : DATE
UWI .         74281020128 : UNIQUE WELL ID
API .         74281020128 : API NUMBER
~Curve Information -----------------------------------------
TDEP.0.1 in  : 1-Inch Frame Depth
IDWD.0.1 in  : Integrated Depth Wheel Depth
TIME.ms      : 1-Inch Frame Time
SCD .0.1 in  : Speed Corrected Depth
~Params ----------------------------------------------------
PROD   .                                                                                                                                                       OP : 
PROG   . ['CMR-A: Combinable Magnetic Resonance Tool - A', 'SGTN: Scintillation Gamma-Ray - N', 'DTCH: DTS Telemetry Tool', 'LEHQT: Logging Equipment Head - QT'] : 
RUN    .                                                                                                                                                    ['1'] : 
DESCENT.                                                                                                                                                   ['-1'] : 
VERSION.                                                                                                                                                 10C0-306 : 
LINEAGE.                                                                                                                               Python-converted from DLIS : 
ORFILE .                                                                                                                        ../inputs/4-brsa-163-rjs_cmr.dlis : 
~Other -----------------------------------------------------
~ASCII -----------------------------------------------------
# ...
 1011890.00000 1011888.06250 1476.00000 1011852.68750
 1011880.00000 1011878.06250 1447.00000 1011852.93750
 1011870.00000 1011868.06250 1447.00000 1011813.00000
 1011860.00000 1011858.06250 1478.00000 1011810.93750
 1011850.00000 1011848.06250 1442.00000 1011811.43750
 1011840.00000 1011838.06250 1413.00000 1011790.50000
 1011830.00000 1011827.93750 1479.00000 1011761.93750
 1011820.00000 1011818.00000 1430.00000 1011762.31250
 1011810.00000 1011808.00000 1445.00000 1011762.81250
 1011800.00000 1011798.00000 1447.00000 1011763.18750
 1011790.00000 1011788.00000 1411.00000 1011763.56250
 1011780.00000 1011778.00000 1444.00000 1011733.31250
 1011770.00000 1011768.00000 1426.00000 1011713.18750
 1011760.00000 1011758.00000 1429.00000 1011713.68750
 1011750.00000 1011748.00000 1462.00000 1011714.18750
 1011740.00000 1011738.00000 1442.00000 1011714.56250
 1011730.00000 1011728.00000 1426.00000 1011714.75000
 1011720.00000 1011718.00000 1394.00000 1011715.00000
 1011710.00000 1011708.00000 1444.00000 1011660.75000
 1011700.00000 1011698.00000 1460.00000 1011660.75000
 1011690.00000 1011688.00000 1428.00000 1011661.18750
 1011680.00000 1011678.00000 1462.00000 1011645.62500
 1011670.00000 1011668.00000 1444.00000 1011645.93750
 1011660.00000 1011658.00000 1479.00000 1011601.43750
 1011650.00000 1011648.06250 1479.00000 1011599.31250
 1011640.00000 1011638.06250 1444.00000 1011599.87500
 1011630.00000 1011628.06250 1462.00000 1011600.37500
 1011620.00000 1011618.06250 1434.00000 1011600.62500
 1011610.00000 1011608.06250 1430.00000 1011600.93750
 1011600.00000 1011598.06250 1436.00000 1011601.12500
 1011590.00000 1011588.06250 1400.00000 1011598.43750
 1011580.00000 1011578.06250 1434.00000 1011598.56250
 1011570.00000 1011567.93750 1452.00000 1011523.93750
 1011560.00000 1011558.00000 1500.00000 1011511.81250
 1011550.00000 1011548.00000 1521.00000 1011512.62500
 1011540.00000 1011538.00000 1503.00000 1011513.18750
 1011530.00000 1011528.00000 1435.00000 1011513.68750
 1011520.00000 1011518.00000 1467.00000 1011513.93750
 1011510.00000 1011508.00000 1434.00000 1011499.75000
 1011500.00000 1011498.00000 1466.00000 1011491.43750
 1011490.00000 1011488.00000 1452.00000 1011491.75000
 1011480.00000 1011478.00000 1470.00000 1011421.75000
 1011470.00000 1011468.00000 1498.00000 1011383.25000
 1011460.00000 1011458.00000 1434.00000 1011384.00000
 1011450.00000 1011448.00000 1400.00000 1011355.62500
 1011440.00000 1011438.00000 1418.00000 1011342.87500
 1011430.00000 1011428.00000 1418.00000 1011343.62500
 1011420.00000 1011418.00000 1402.00000 1011344.31250
 1011410.00000 1011408.00000 1398.00000 1011344.75000
 1011400.00000 1011398.00000 1414.00000 1011345.18750
 1011390.00000 1011388.06250 1398.00000 1011324.12500
 1011380.00000 1011378.06250 1431.00000 1011322.75000
 1011370.00000 1011368.06250 1463.00000 1011323.12500
 1011360.00000 1011358.06250 1383.00000 1011323.43750
 1011350.00000 1011348.06250 1381.00000 1011294.00000
 1011340.00000 1011338.06250 1431.00000 1011293.43750
 1011330.00000 1011328.06250 1447.00000 1011293.81250
 1011320.00000 1011318.06250 1465.00000 1011293.25000
 1011310.00000 1011307.93750 1382.00000 1011293.43750
 1011300.00000 1011298.00000 1481.00000 1011216.43750
 1011290.00000 1011288.00000 1496.00000 1011196.75000
 1011280.00000 1011278.00000 1462.00000 1011197.62500
 1011270.00000 1011268.00000 1397.00000 1011198.31250
 1011260.00000 1011258.00000 1377.00000 1011198.87500
 1011250.00000 1011248.00000 1428.00000 1011199.25000
 1011240.00000 1011238.00000 1448.00000 1011199.56250
 1011230.00000 1011228.00000 1462.00000 1011199.81250
 1011220.00000 1011218.00000 1481.00000 1011200.00000
 1011210.00000 1011208.00000 1465.00000 1011200.25000
 1011200.00000 1011198.00000 1494.00000 1011145.50000
 1011190.00000 1011188.00000 1463.00000 1011143.00000
 1011180.00000 1011178.00000 1479.00000 1011090.81250
 1011170.00000 1011168.00000 1413.00000 1011063.93750
 1011160.00000 1011158.00000 1375.00000 1011064.81250
 1011150.00000 1011148.00000 1412.00000 1011065.56250
 1011140.00000 1011138.00000 1464.00000 1011066.06250
 1011130.00000 1011128.06250 1446.00000 1011066.50000
 1011120.00000 1011118.06250 1430.00000 1011066.87500
 1011110.00000 1011108.06250 1440.00000 1011051.50000
 1011100.00000 1011098.06250 1459.00000 1011051.25000
 1011090.00000 1011088.06250 1456.00000 1011041.25000
 1011080.00000 1011078.06250 1405.00000 1010984.81250
 1011070.00000 1011068.06250 1441.00000 1010985.12500
 1011060.00000 1011058.06250 1447.00000 1010985.68750
 1011050.00000 1011047.93750 1492.00000 1010986.18750
 1011040.00000 1011038.00000 1442.00000 1010986.56250
 1011030.00000 1011028.00000 1492.00000 1010984.12500
 1011020.00000 1011018.00000 1462.00000 1010960.12500
 1011010.00000 1011008.00000 1474.00000 1010950.18750
 1011000.00000 1010998.00000 1462.00000 1010942.93750
 1010990.00000 1010988.00000 1426.00000 1010926.31250
 1010980.00000 1010978.00000 1474.00000 1010926.68750
 1010970.00000 1010968.00000 1428.00000 1010927.06250
 1010960.00000 1010958.00000 1444.00000 1010917.25000
 1010950.00000 1010948.00000 1442.00000 1010917.12500
 1010940.00000 1010938.00000 1428.00000 1010890.43750
 1010930.00000 1010928.00000 1430.00000 1010865.75000
 1010920.00000 1010918.00000 1468.00000 1010866.18750
 1010910.00000 1010908.00000 1414.00000 1010866.56250
 1010900.00000 1010898.00000 1434.00000 1010856.12500
 1010890.00000 1010888.00000 1485.00000 1010856.37500
 1010880.00000 1010878.00000 1485.00000 1010852.06250
 1010870.00000 1010868.06250 1501.00000 1010832.93750
 1010860.00000 1010858.06250 1516.00000 1010833.06250
 1010850.00000 1010848.06250 1469.00000 1010833.31250
 1010840.00000 1010838.06250 1504.00000 1010833.62500
 1010830.00000 1010828.06250 1484.00000 1010833.81250
 1010820.00000 1010818.06250 1450.00000 1010764.06250
 1010810.00000 1010808.06250 1432.00000 1010714.93750
 1010800.00000 1010798.06250 1468.00000 1010715.81250
 1010790.00000 1010787.93750 1467.00000 1010716.62500
 1010780.00000 1010778.00000 1433.00000 1010717.31250
 1010770.00000 1010768.00000 1465.00000 1010717.81250
 1010760.00000 1010758.00000 1449.00000 1010718.18750
 1010750.00000 1010748.00000 1516.00000 1010718.50000
 1010740.00000 1010738.00000 1450.00000 1010718.75000
 1010730.00000 1010728.00000 1416.00000 1010718.87500
 1010720.00000 1010718.00000 1400.00000 1010678.68750
 1010710.00000 1010708.00000 1468.00000 1010673.75000
 1010700.00000 1010698.00000 1482.00000 1010673.75000
 1010690.00000 1010688.00000 1460.00000 1010615.12500
 1010680.00000 1010678.00000 1444.00000 1010613.68750
 1010670.00000 1010668.00000 1464.00000 1010614.31250
 1010660.00000 1010658.00000 1462.00000 1010614.75000
 1010650.00000 1010648.00000 1430.00000 1010615.12500
 1010640.00000 1010638.00000 1414.00000 1010615.56250
 1010630.00000 1010628.00000 1444.00000 1010612.43750
 1010620.00000 1010618.00000 1446.00000 1010579.31250
 1010610.00000 1010608.06250 1432.00000 1010579.37500
 1010600.00000 1010598.06250 1462.00000 1010516.81250
 1010590.00000 1010588.06250 1463.00000 1010504.50000
 1010580.00000 1010578.06250 1483.00000 1010505.31250
 1010570.00000 1010568.06250 1480.00000 1010505.68750
 1010560.00000 1010558.06250 1494.00000 1010506.12500
 1010550.00000 1010548.06250 1432.00000 1010506.56250
 1010540.00000 1010538.06250 1494.00000 1010506.81250
 1010530.00000 1010528.06250 1412.00000 1010507.12500
 1010520.00000 1010518.00000 1342.00000 1010493.06250
 1010510.00000 1010508.00000 1460.00000 1010456.93750
 1010500.00000 1010498.00000 1440.00000 1010456.25000
 1010490.00000 1010488.00000 1406.00000 1010456.62500
 1010480.00000 1010478.00000 1424.00000 1010442.43750
 1010470.00000 1010468.00000 1423.00000 1010440.87500
 1010460.00000 1010458.00000 1480.00000 1010441.25000
 1010450.00000 1010448.00000 1497.00000 1010411.87500
 1010440.00000 1010438.00000 1458.00000 1010410.50000
 1010430.00000 1010428.00000 1462.00000 1010407.81250
 1010420.00000 1010418.00000 1473.00000 1010385.43750
 1010410.00000 1010408.00000 1457.00000 1010385.68750
