~Version ---------------------------------------------------
VERS.   2.0 : CWLS log ASCII Standard -VERSION 2.0
WRAP.    NO : One line per depth step
DLM . SPACE : Column Data Section Delimiter
~Well ------------------------------------------------------
STRT.0.1 in 1028280.00000 : START DEPTH
STOP.0.1 in  996610.00000 : STOP DEPTH
STEP.0.1 in     -10.00000 : STEP
NULL.             -999.25 : NULL VALUE
COMP.           PETROBRAS : COMPANY
WELL.      4-BRSA-163-RJS : WELL
FLD .            ALBACORA : FIELD
LOC .                     : LOCATION
PROV.                     : PROVINCE
CNTY.                     : COUNTY
STAT.                     : STATE
CTRY.                     : COUNTRY
SRVC.        Schlumberger : SERVICE COMPANY
DATE. 2002-09-06 08:57:32 : DATE
UWI .         74281020128 : UNIQUE WELL ID
API .         74281020128 : API NUMBER
~Curve Information -----------------------------------------
TDEP.0.1 in  : 1-Inch Frame Depth
IDWD.0.1 in  : Integrated Depth Wheel Depth
TIME.ms      : 1-Inch Frame Time
SCD .0.1 in  : Speed Corrected Depth
~Params ----------------------------------------------------
PROD   .                                                                                                                                                       OP : 
PROG   . ['CMR-A: Combinable Magnetic Resonance Tool - A', 'SGTN: Scintillation Gamma-Ray - N', 'DTCH: DTS Telemetry Tool', 'LEHQT: Logging Equipment Head - QT'] : 
RUN    .                                                                                                                                                    ['1'] : 
DESCENT.                                                                                                                                                   ['-1'] : 
VERSION.                                                                                                                                                 10C0-306 : 
LINEAGE.                                                                                                                               Python-converted from DLIS : 
ORFILE .                                                                                                                        ../inputs/4-brsa-163-rjs_cmr.dlis : 
~Other -----------------------------------------------------
~ASCII -----------------------------------------------------
# ...
 1017850.00000 1017848.06250 1534.00000 1017828.75000
 1017840.00000 1017838.06250 1516.00000 1017782.93750
 1017830.00000 1017828.06250 1488.00000 1017782.93750
 1017820.00000 1017817.93750 1454.00000 1017783.43750
 1017810.00000 1017807.93750 1484.00000 1017738.93750
 1017800.00000 1017797.93750 1502.00000 1017738.87500
 1017790.00000 1017787.93750 1522.00000 1017739.43750
 1017780.00000 1017778.00000 1507.00000 1017739.93750
 1017770.00000 1017768.00000 1540.00000 1017740.31250
 1017760.00000 1017758.00000 1573.00000 1017723.00000
 1017750.00000 1017748.00000 1604.00000 1017717.43750
 1017740.00000 1017738.00000 1555.00000 1017708.75000
 1017730.00000 1017728.00000 1522.00000 1017707.87500
 1017720.00000 1017718.00000 1453.00000 1017688.12500
 1017710.00000 1017708.00000 1490.00000 1017681.37500
 1017700.00000 1017698.00000 1539.00000 1017674.75000
 1017690.00000 1017688.00000 1419.00000 1017618.68750
 1017680.00000 1017678.00000 1539.00000 1017618.81250
 1017670.00000 1017668.00000 1541.00000 1017619.50000
 1017660.00000 1017658.00000 1490.00000 1017554.18750
 1017650.00000 1017648.00000 1524.00000 1017552.87500
 1017640.00000 1017638.00000 1520.00000 1017553.62500
 1017630.00000 1017628.00000 1542.00000 1017554.18750
 1017620.00000 1017618.00000 1470.00000 1017554.68750
 1017610.00000 1017608.06250 1468.00000 1017555.06250
 1017600.00000 1017598.06250 1518.00000 1017555.37500
 1017590.00000 1017588.06250 1616.00000 1017555.56250
 1017580.00000 1017578.06250 1536.00000 1017555.75000
 1017570.00000 1017568.06250 1504.00000 1017479.68750
 1017560.00000 1017557.93750 1572.00000 1017478.56250
 1017550.00000 1017547.93750 1600.00000 1017479.25000
 1017540.00000 1017537.93750 1532.00000 1017442.43750
 1017530.00000 1017527.93750 1568.00000 1017441.37500
 1017520.00000 1017518.00000 1501.00000 1017441.87500
 1017510.00000 1017508.00000 1568.00000 1017442.31250
 1017500.00000 1017498.00000 1583.00000 1017442.68750
 1017490.00000 1017488.00000 1566.00000 1017443.00000
 1017480.00000 1017478.00000 1484.00000 1017399.56250
 1017470.00000 1017468.00000 1500.00000 1017383.37500
 1017460.00000 1017458.00000 1516.00000 1017383.18750
 1017450.00000 1017448.00000 1500.00000 1017320.06250
 1017440.00000 1017438.00000 1500.00000 1017306.12500
 1017430.00000 1017428.00000 1516.00000 1017307.00000
 1017420.00000 1017418.00000 1482.00000 1017307.68750
 1017410.00000 1017408.00000 1484.00000 1017308.25000
 1017400.00000 1017398.00000 1516.00000 1017308.62500
 1017390.00000 1017388.00000 1497.00000 1017309.00000
 1017380.00000 1017378.00000 1481.00000 1017309.18750
 1017370.00000 1017368.00000 1432.00000 1017309.37500
 1017360.00000 1017358.00000 1482.00000 1017308.25000
 1017350.00000 1017348.06250 1482.00000 1017296.12500
 1017340.00000 1017338.06250 1564.00000 1017295.93750
 1017330.00000 1017328.06250 1481.00000 1017275.75000
 1017320.00000 1017318.06250 1549.00000 1017263.93750
 1017310.00000 1017308.06250 1514.00000 1017264.31250
 1017300.00000 1017297.93750 1482.00000 1017264.50000
 1017290.00000 1017287.93750 1484.00000 1017264.81250
 1017280.00000 1017277.93750 1432.00000 1017264.87500
 1017270.00000 1017267.93750 1431.00000 1017244.50000
 1017260.00000 1017258.00000 1497.00000 1017237.56250
 1017250.00000 1017248.00000 1548.00000 1017229.43750
 1017240.00000 1017238.00000 1532.00000 1017224.43750
 1017230.00000 1017228.00000 1532.00000 1017196.93750
 1017220.00000 1017218.00000 1501.00000 1017197.06250
 1017210.00000 1017208.00000 1449.00000 1017197.43750
 1017200.00000 1017198.00000 1516.00000 1017191.62500
 1017190.00000 1017188.00000 1500.00000 1017168.50000
 1017180.00000 1017178.00000 1484.00000 1017057.43750
 1017170.00000 1017168.00000 1516.00000 1017056.68750
 1017160.00000 1017158.00000 1437.00000 1017057.75000
 1017150.00000 1017148.00000 1521.00000 1017058.50000
 1017140.00000 1017138.00000 1538.00000 1017059.18750
 1017130.00000 1017128.00000 1454.00000 1017059.75000
 1017120.00000 1017118.00000 1454.00000 1017060.06250
 1017110.00000 1017108.00000 1452.00000 1017060.43750
 1017100.00000 1017098.00000 1457.00000 1017060.62500
 1017090.00000 1017088.06250 1523.00000 1017013.37500
 1017080.00000 1017078.06250 1540.00000 1016978.06250
 1017070.00000 1017068.06250 1508.00000 1016978.75000
 1017060.00000 1017058.06250 1442.00000 1016961.43750
 1017050.00000 1017048.06250 1478.00000 1016955.93750
 1017040.00000 1017037.93750 1525.00000 1016956.56250
 1017030.00000 1017027.93750 1477.00000 1016957.00000
 1017020.00000 1017017.93750 1528.00000 1016957.31250
 1017010.00000 1017007.93750 1472.00000 1016957.62500
 1017000.00000 1016998.00000 1456.00000 1016932.68750
 1016990.00000 1016988.00000 1495.00000 1016914.12500
 1016980.00000 1016978.00000 1540.00000 1016913.56250
 1016970.00000 1016968.00000 1457.00000 1016898.37500
 1016960.00000 1016958.00000 1440.00000 1016866.93750
 1016950.00000 1016948.00000 1442.00000 1016867.43750
 1016940.00000 1016938.00000 1435.00000 1016867.93750
 1016930.00000 1016928.00000 1518.00000 1016868.31250
 1016920.00000 1016918.00000 1453.00000 1016868.62500
 1016910.00000 1016908.00000 1453.00000 1016824.00000
 1016900.00000 1016898.00000 1421.00000 1016822.37500
 1016890.00000 1016888.00000 1485.00000 1016822.81250
 1016880.00000 1016878.00000 1450.00000 1016819.56250
 1016870.00000 1016868.00000 1520.00000 1016817.43750
 1016860.00000 1016858.00000 1487.00000 1016817.75000
 1016850.00000 1016848.00000 1452.00000 1016816.68750
 1016840.00000 1016838.00000 1436.00000 1016801.00000
 1016830.00000 1016828.06250 1480.00000 1016801.18750
 1016820.00000 1016818.06250 1467.00000 1016745.93750
 1016810.00000 1016808.06250 1501.00000 1016732.00000
 1016800.00000 1016798.06250 1466.00000 1016732.68750
 1016790.00000 1016788.06250 1514.00000 1016689.93750
 1016780.00000 1016778.06250 1533.00000 1016689.31250
 1016770.00000 1016767.93750 1465.00000 1016690.00000
 1016760.00000 1016757.93750 1448.00000 1016690.50000
 1016750.00000 1016747.93750 1464.00000 1016690.87500
 1016740.00000 1016738.00000 1467.00000 1016691.18750
 1016730.00000 1016728.00000 1529.00000 1016691.43750
 1016720.00000 1016718.00000 1482.00000 1016666.25000
 1016710.00000 1016708.00000 1450.00000 1016664.81250
 1016700.00000 1016698.00000 1466.00000 1016584.37500
 1016690.00000 1016688.00000 1467.00000 1016555.75000
 1016680.00000 1016678.00000 1465.00000 1016556.68750
 1016670.00000 1016668.00000 1478.00000 1016557.56250
 1016660.00000 1016658.00000 1465.00000 1016558.25000
 1016650.00000 1016648.00000 1465.00000 1016558.68750
 1016640.00000 1016638.00000 1480.00000 1016559.12500
 1016630.00000 1016628.00000 1496.00000 1016559.37500
 1016620.00000 1016618.00000 1514.00000 1016559.68750
 1016610.00000 1016608.00000 1462.00000 1016559.87500
 1016600.00000 1016598.00000 1479.00000 1016513.12500
 1016590.00000 1016588.00000 1445.00000 1016511.25000
 1016580.00000 1016578.00000 1474.00000 1016511.68750
 1016570.00000 1016568.06250 1512.00000 1016497.68750
 1016560.00000 1016558.06250 1478.00000 1016498.06250
 1016550.00000 1016548.06250 1462.00000 1016498.37500
 1016540.00000 1016538.06250 1462.00000 1016498.62500
 1016530.00000 1016528.06250 1463.00000 1016498.75000
 1016520.00000 1016518.06250 1427.00000 1016468.25000
 1016510.00000 1016507.93750 1464.00000 1016425.75000
 1016500.00000 1016497.93750 1462.00000 1016424.31250
 1016490.00000 1016487.93750 1426.00000 1016424.93750
 1016480.00000 1016478.00000 1480.00000 1016425.37500
 1016470.00000 1016468.00000 1500.00000 1016425.68750
 1016460.00000 1016458.00000 1500.00000 1016419.62500
 1016450.00000 1016448.00000 1504.00000 1016397.25000
 1016440.00000 1016438.00000 1470.00000 1016397.62500
 1016430.00000 1016428.00000 1402.00000 1016342.81250
 1016420.00000 1016418.00000 1470.00000 1016336.18750
 1016410.00000 1016408.00000 1452.00000 1016336.87500
 1016400.00000 1016398.00000 1452.00000 1016337.37500
 1016390.00000 1016388.00000 1506.00000 1016337.75000
 1016380.00000 1016378.00000 1570.00000 1016338.12500
 1016370.00000 1016368.00000 1540.00000 1016338.43750
