~Version ---------------------------------------------------
VERS.   2.0 : CWLS log ASCII Standard -VERSION 2.0
WRAP.    NO : One line per depth step
DLM . SPACE : Column Data Section Delimiter
~Well ------------------------------------------------------
STRT.0.1 in 1028280.00000 : START DEPTH
STOP.0.1 in  996610.00000 : STOP DEPTH
STEP.0.1 in     -10.00000 : STEP
NULL.             -999.25 : NULL VALUE
COMP.           PETROBRAS : COMPANY
WELL.      4-BRSA-163-RJS : WELL
FLD .            ALBACORA : FIELD
LOC .                     : LOCATION
PROV.                     : PROVINCE
CNTY.                     : COUNTY
STAT.                     : STATE
CTRY.                     : COUNTRY
SRVC.        Schlumberger : SERVICE COMPANY
DATE. 2002-09-06 08:57:32 : DATE
UWI .         74281020128 : UNIQUE WELL ID
API .         74281020128 : API NUMBER
~Curve Information -----------------------------------------
TDEP.0.1 in  : 1-Inch Frame Depth
IDWD.0.1 in  : Integrated Depth Wheel Depth
TIME.ms      : 1-Inch Frame Time
SCD .0.1 in  : Speed Corrected Depth
~Params ----------------------------------------------------
PROD   .                                                                                                                                                       OP : 
PROG   . ['CMR-A: Combinable Magnetic Resonance Tool - A', 'SGTN: Scintillation Gamma-Ray - N', 'DTCH: DTS Telemetry Tool', 'LEHQT: Logging Equipment Head - QT'] : 
RUN    .                                                                                                                                                    ['1'] : 
DESCENT.                                                                                                                                                   ['-1'] : 
VERSION.                                                                                                                                                 10C0-306 : 
LINEAGE.                                                                                                                               Python-converted from DLIS : 
ORFILE .                                                                                                                        ../inputs/4-brsa-163-rjs_cmr.dlis : 
~Other -----------------------------------------------------
~ASCII -----------------------------------------------------
# ...
 998400.00000 999308.00000    0.00000 999207.00000
 998390.00000 999308.00000    0.00000 999207.00000
 998380.00000 999308.00000    0.00000 999207.00000
 998370.00000 999308.00000    0.00000 999207.00000
 998360.00000 999308.00000    0.00000 999207.00000
 998350.00000 999308.00000    0.00000 999207.00000
 998340.00000 999308.00000    0.00000 999207.00000
 998330.00000 999308.00000    0.00000 999207.00000
 998320.00000 999308.00000    0.00000 999207.00000
 998310.00000 999308.00000    0.00000 999207.00000
 998300.00000 999308.00000    0.00000 999207.00000
 998290.00000 999308.00000    0.00000 999207.00000
 998280.00000 999308.00000    0.00000 999207.00000
 998270.00000 999308.00000    0.00000 999207.00000
 998260.00000 999308.00000    0.00000 999207.00000
 998250.00000 999308.00000    0.00000 999207.00000
 998240.00000 999308.00000    0.00000 999207.00000
 998230.00000 999308.00000    0.00000 999207.00000
 998220.00000 999308.00000    0.00000 999207.00000
 998210.00000 999308.00000    0.00000 999207.00000
 998200.00000 999308.00000    0.00000 999207.00000
 998190.00000 999308.00000    0.00000 999207.00000
 998180.00000 999308.00000    0.00000 999207.00000
 998170.00000 999308.00000    0.00000 999207.00000
 998160.00000 999308.00000    0.00000 999207.00000
 998150.00000 999308.00000    0.00000 999207.00000
 998140.00000 999308.00000    0.00000 999207.00000
 998130.00000 999308.00000    0.00000 999207.00000
 998120.00000 999308.00000    0.00000 999207.00000
 998110.00000 999308.00000    0.00000 999207.00000
 998100.00000 999308.00000    0.00000 999207.00000
 998090.00000 999308.00000    0.00000 999207.00000
 998080.00000 999308.00000    0.00000 999207.00000
 998070.00000 999308.00000    0.00000 999207.00000
 998060.00000 999308.00000    0.00000 999207.00000
 998050.00000 999308.00000    0.00000 999207.00000
 998040.00000 999308.00000    0.00000 999207.00000
 998030.00000 999308.00000    0.00000 999207.00000
 998020.00000 999308.00000    0.00000 999207.00000
 998010.00000 999308.00000    0.00000 999207.00000
 998000.00000 999308.00000    0.00000 999207.00000
 997990.00000 999308.00000    0.00000 999207.00000
 997980.00000 999308.00000    0.00000 999207.00000
 997970.00000 999308.00000    0.00000 999207.00000
 997960.00000 999308.00000    0.00000 999207.00000
 997950.00000 999308.00000    0.00000 999207.00000
 997940.00000 999308.00000    0.00000 999207.00000
 997930.00000 999308.00000    0.00000 999207.00000
 997920.00000 999308.00000    0.00000 999207.00000
 997910.00000 999308.00000    0.00000 999207.00000
 997900.00000 999308.00000    0.00000 999207.00000
 997890.00000 999308.00000    0.00000 999207.00000
 997880.00000 999308.00000    0.00000 999207.00000
 997870.00000 999308.00000    0.00000 999207.00000
 997860.00000 999308.00000    0.00000 999207.00000
 997850.00000 999308.00000    0.00000 999207.00000
 997840.00000 999308.00000    0.00000 999207.00000
 997830.00000 999308.00000    0.00000 999207.00000
 997820.00000 999308.00000    0.00000 999207.00000
 997810.00000 999308.00000    0.00000 999207.00000
 997800.00000 999308.00000    0.00000 999207.00000
 997790.00000 999308.00000    0.00000 999207.00000
 997780.00000 999308.00000    0.00000 999207.00000
 997770.00000 999308.00000    0.00000 999207.00000
 997760.00000 999308.00000    0.00000 999207.00000
 997750.00000 999308.00000    0.00000 999207.00000
 997740.00000 999308.00000    0.00000 999207.00000
 997730.00000 999308.00000    0.00000 999207.00000
 997720.00000 999308.00000    0.00000 999207.00000
 997710.00000 999308.00000    0.00000 999207.00000
 997700.00000 999308.00000    0.00000 999207.00000
 997690.00000 999308.00000    0.00000 999207.00000
 997680.00000 999308.00000    0.00000 999207.00000
 997670.00000 999308.00000    0.00000 999207.00000
 997660.00000 999308.00000    0.00000 999207.00000
 997650.00000 999308.00000    0.00000 999207.00000
 997640.00000 999308.00000    0.00000 999207.00000
 997630.00000 999308.00000    0.00000 999207.00000
 997620.00000 999308.00000    0.00000 999207.00000
 997610.00000 999308.00000    0.00000 999207.00000
 997600.00000 999308.00000    0.00000 999207.00000
 997590.00000 999308.00000    0.00000 999207.00000
 997580.00000 999308.00000    0.00000 999207.00000
 997570.00000 999308.00000    0.00000 999207.00000
 997560.00000 999308.00000    0.00000 999207.00000
 997550.00000 999308.00000    0.00000 999207.00000
 997540.00000 999308.00000    0.00000 999207.00000
 997530.00000 999308.00000    0.00000 999207.00000
 997520.00000 999308.00000    0.00000 999207.00000
 997510.00000 999308.00000    0.00000 999207.00000
 997500.00000 999308.00000    0.00000 999207.00000
 997490.00000 999308.00000    0.00000 999207.00000
 997480.00000 999308.00000    0.00000 999207.00000
 997470.00000 999308.00000    0.00000 999207.00000
 997460.00000 999308.00000    0.00000 999207.00000
 997450.00000 999308.00000    0.00000 999207.00000
 997440.00000 999308.00000    0.00000 999207.00000
 997430.00000 999308.00000    0.00000 999207.00000
 997420.00000 999308.00000    0.00000 999207.00000
 997410.00000 999308.00000    0.00000 999207.00000
 997400.00000 999308.00000    0.00000 999207.00000
 997390.00000 999308.00000    0.00000 999207.00000
 997380.00000 999308.00000    0.00000 999207.00000
 997370.00000 999308.00000    0.00000 999207.00000
 997360.00000 999308.00000    0.00000 999207.00000
 997350.00000 999308.00000    0.00000 999207.00000
 997340.00000 999308.00000    0.00000 999207.00000
 997330.00000 999308.00000    0.00000 999207.00000
 997320.00000 999308.00000    0.00000 999207.00000
 997310.00000 999308.00000    0.00000 999207.00000
 997300.00000 999308.00000    0.00000 999207.00000
 997290.00000 999308.00000    0.00000 999207.00000
 997280.00000 999308.00000    0.00000 999207.00000
 997270.00000 999308.00000    0.00000 999207.00000
 997260.00000 999308.00000    0.00000 999207.00000
 997250.00000 999308.00000    0.00000 999207.00000
 997240.00000 999308.00000    0.00000 999207.00000
 997230.00000 999308.00000    0.00000 999207.00000
 997220.00000 999308.00000    0.00000 999207.00000
 997210.00000 999308.00000    0.00000 999207.00000
 997200.00000 999308.00000    0.00000 999207.00000
 997190.00000 999308.00000    0.00000 999207.00000
 997180.00000 999308.00000    0.00000 999207.00000
 997170.00000 999308.00000    0.00000 999207.00000
 997160.00000 999308.00000    0.00000 999207.00000
 997150.00000 999308.00000    0.00000 999207.00000
 997140.00000 999308.00000    0.00000 999207.00000
 997130.00000 999308.00000    0.00000 999207.00000
 997120.00000 999308.00000    0.00000 999207.00000
 997110.00000 999308.00000    0.00000 999207.00000
 997100.00000 999308.00000    0.00000 999207.00000
 997090.00000 999308.00000    0.00000 999207.00000
 997080.00000 999308.00000    0.00000 999207.00000
 997070.00000 999308.00000    0.00000 999207.00000
 997060.00000 999308.00000    0.00000 999207.00000
 997050.00000 999308.00000    0.00000 999207.00000
 997040.00000 999308.00000    0.00000 999207.00000
 997030.00000 999308.00000    0.00000 999207.00000
 997020.00000 999308.00000    0.00000 999207.00000
 997010.00000 999308.00000    0.00000 999207.00000
 997000.00000 999308.00000    0.00000 999207.00000
 996990.00000 999308.00000    0.00000 999207.00000
 996980.00000 999308.00000    0.00000 999207.00000
 996970.00000 999308.00000    0.00000 999207.00000
 996960.00000 999308.00000    0.00000 999207.00000
 996950.00000 999308.00000    0.00000 999207.00000
 996940.00000 999308.00000    0.00000 999207.00000
 996930.00000 999308.00000    0.00000 999207.00000
 996920.00000 999308.00000    0.00000 999207.00000
 996910.00000 999308.00000    0.00000 999207.00000
 996900.00000 999308.00000    0.00000 999207.00000
 996890.00000 999308.00000    0.00000 999207.00000
 996880.00000 999308.00000    0.00000 999207.00000
 996870.00000 999308.00000    0.00000 999207.00000
 996860.00000 999308.00000    0.00000 999207.00000
 996850.00000 999308.00000    0.00000 999207.00000
 996840.00000 999308.00000    0.00000 999207.00000
