~Version ---------------------------------------------------
VERS.   2.0 : CWLS log ASCII Standard -VERSION 2.0
WRAP.    NO : One line per depth step
DLM . SPACE : Column Data Section Delimiter
~Well ------------------------------------------------------
STRT.0.1 in 1028280.00000 : START DEPTH
STOP.0.1 in  996610.00000 : STOP DEPTH
STEP.0.1 in     -10.00000 : STEP
NULL.             -999.25 : NULL VALUE
COMP.           PETROBRAS : COMPANY
WELL.      4-BRSA-163-RJS : WELL
FLD .            ALBACORA : FIELD
LOC .                     : LOCATION
PROV.                     : PROVINCE
CNTY.                     : COUNTY
STAT.                     : STATE
CTRY.                     : COUNTRY
SRVC.        Schlumberger : SERVICE COMPANY
DATE. 2002-09-06 08:57:32 : DATE
UWI .         74281020128 : UNIQUE WELL ID
API .         74281020128 : API NUMBER
~Curve Information -----------------------------------------
TDEP.0.1 in  : 1-Inch Frame Depth
IDWD.0.1 in  : Integrated Depth Wheel Depth
TIME.ms      : 1-Inch Frame Time
SCD .0.1 in  : Speed Corrected Depth
~Params ----------------------------------------------------
PROD   .                                                                                                                                                       OP : 
PROG   . ['CMR-A: Combinable Magnetic Resonance Tool - A', 'SGTN: Scintillation Gamma-Ray - N', 'DTCH: DTS Telemetry Tool', 'LEHQT: Logging Equipment Head - QT'] : 
RUN    .                                                                                                                                                    ['1'] : 
DESCENT.                                                                                                                                                   ['-1'] : 
VERSION.                                                                                                                                                 10C0-306 : 
LINEAGE.                                                                                                                               Python-converted from DLIS : 
ORFILE .                                                                                                                        ../inputs/4-brsa-163-rjs_cmr.dlis : 
~Other -----------------------------------------------------
~ASCII -----------------------------------------------------
 1028280.00000 1028278.00000    0.00000 1028278.50000
 1028270.00000 1028268.00000 1466.00000 1028268.18750
 1028260.00000 1028258.00000 1534.00000 1028258.37500
 1028250.00000 1028248.00000 1536.00000 1028248.43750
 1028240.00000 1028238.00000 1606.00000 1028238.31250
 1028230.00000 1028227.93750 1554.00000 1028228.31250
 1028220.00000 1028217.93750 1542.00000 1028218.25000
 1028210.00000 1028207.93750 1587.00000 1028208.43750
 1028200.00000 1028197.93750 1519.00000 1028198.43750
 1028190.00000 1028187.93750 1488.00000 1028188.25000
 1028180.00000 1028177.93750 1526.00000 1028178.31250
 1028170.00000 1028167.93750 1526.00000 1028168.31250
 1028160.00000 1028157.93750 1577.00000 1028158.37500
 1028150.00000 1028147.93750 1525.00000 1028148.43750
 1028140.00000 1028138.00000 1560.00000 1028138.37500
 1028130.00000 1028128.00000 1510.00000 1028128.00000
 1028120.00000 1028118.00000 1544.00000 1028118.37500
 1028110.00000 1028108.00000 1529.00000 1028108.25000
 1028100.00000 1028098.00000 1543.00000 1028098.25000
 1028090.00000 1028088.00000 1546.00000 1028088.00000
 1028080.00000 1028078.00000 1558.00000 1028078.25000
 1028070.00000 1028068.00000 1510.00000 1028068.31250
 1028060.00000 1028058.00000 1513.00000 1028058.00000
 1028050.00000 1028048.00000 1495.00000 1028048.12500
 1028040.00000 1028038.00000 1510.00000 1028038.18750
 1028030.00000 1028028.00000 1557.00000 1028028.12500
 1028020.00000 1028018.00000 1543.00000 1028018.00000
 1028010.00000 1028008.00000 1544.00000 1028008.12500
 1028000.00000 1027998.00000 1494.00000 1027998.12500
 1027990.00000 1027988.00000 1510.00000 1027988.31250
 1027980.00000 1027978.00000 1510.00000 1027978.00000
 1027970.00000 1027967.93750 1487.00000 1027968.12500
 1027960.00000 1027957.93750 1439.00000 1027958.12500
 1027950.00000 1027947.93750 1540.00000 1027948.06250
 1027940.00000 1027937.93750 1609.00000 1027938.12500
 1027930.00000 1027927.93750 1543.00000 1027928.06250
 1027920.00000 1027917.93750 1472.00000 1027918.25000
 1027910.00000 1027907.93750 1508.00000 1027907.93750
 1027900.00000 1027897.93750 1458.00000 1027873.18750
 1027890.00000 1027887.93750 1490.00000 1027791.56250
 1027880.00000 1027878.00000 1522.00000 1027789.75000
 1027870.00000 1027868.00000 1456.00000 1027790.81250
 1027860.00000 1027858.00000 1454.00000 1027791.56250
 1027850.00000 1027848.00000 1488.00000 1027792.25000
 1027840.00000 1027838.00000 1438.00000 1027792.68750
 1027830.00000 1027828.00000 1502.00000 1027759.62500
 1027820.00000 1027818.00000 1420.00000 1027659.18750
 1027810.00000 1027808.00000 1406.00000 1027659.50000
 1027800.00000 1027798.00000 1420.00000 1027660.56250
 1027790.00000 1027788.00000 1502.00000 1027661.43750
 1027780.00000 1027778.00000 1482.00000 1027662.06250
 1027770.00000 1027768.00000 1418.00000 1027662.68750
 1027760.00000 1027758.00000 1433.00000 1027663.06250
 1027750.00000 1027748.00000 1435.00000 1027663.31250
 1027740.00000 1027738.00000 1482.00000 1027663.62500
 1027730.00000 1027728.00000 1470.00000 1027663.81250
 1027720.00000 1027718.00000 1452.00000 1027652.37500
 1027710.00000 1027707.93750 1502.00000 1027652.50000
 1027700.00000 1027697.93750 1532.00000 1027615.93750
 1027690.00000 1027687.93750 1470.00000 1027615.93750
 1027680.00000 1027677.93750 1500.00000 1027616.25000
 1027670.00000 1027667.93750 1452.00000 1027602.37500
 1027660.00000 1027657.93750 1453.00000 1027602.56250
 1027650.00000 1027647.93750 1433.00000 1027602.87500
 1027640.00000 1027637.93750 1551.00000 1027603.06250
 1027630.00000 1027627.93750 1463.00000 1027603.25000
 1027620.00000 1027618.00000 1486.00000 1027603.37500
 1027610.00000 1027608.00000 1486.00000 1027578.00000
 1027600.00000 1027598.00000 1450.00000 1027578.00000
 1027590.00000 1027588.00000 1465.00000 1027578.18750
 1027580.00000 1027578.00000 1433.00000 1027551.56250
 1027570.00000 1027568.00000 1433.00000 1027551.43750
 1027560.00000 1027558.00000 1432.00000 1027551.75000
 1027550.00000 1027548.00000 1467.00000 1027444.50000
 1027540.00000 1027538.00000 1513.00000 1027443.87500
 1027530.00000 1027528.00000 1515.00000 1027444.87500
 1027520.00000 1027518.00000 1429.00000 1027436.87500
 1027510.00000 1027508.00000 1413.00000 1027437.25000
 1027500.00000 1027498.00000 1401.00000 1027437.75000
 1027490.00000 1027488.00000 1473.00000 1027438.12500
 1027480.00000 1027478.00000 1521.00000 1027438.50000
 1027470.00000 1027468.00000 1439.00000 1027438.68750
 1027460.00000 1027458.00000 1458.00000 1027418.62500
 1027450.00000 1027447.93750 1456.00000 1027417.18750
 1027440.00000 1027437.93750 1504.00000 1027417.43750
 1027430.00000 1027427.93750 1504.00000 1027332.18750
 1027420.00000 1027417.93750 1442.00000 1027326.06250
 1027410.00000 1027407.93750 1438.00000 1027326.81250
 1027400.00000 1027397.93750 1472.00000 1027327.50000
 1027390.00000 1027387.93750 1487.00000 1027328.00000
 1027380.00000 1027377.93750 1457.00000 1027328.37500
 1027370.00000 1027367.93750 1472.00000 1027328.62500
 1027360.00000 1027358.00000 1473.00000 1027328.93750
 1027350.00000 1027348.00000 1504.00000 1027313.06250
 1027340.00000 1027338.00000 1541.00000 1027257.25000
 1027330.00000 1027328.00000 1458.00000 1027240.62500
 1027320.00000 1027318.00000 1455.00000 1027241.31250
 1027310.00000 1027308.00000 1493.00000 1027241.87500
 1027300.00000 1027298.00000 1492.00000 1027242.25000
 1027290.00000 1027288.00000 1474.00000 1027242.62500
 1027280.00000 1027278.00000 1400.00000 1027189.56250
 1027270.00000 1027268.00000 1436.00000 1027189.68750
 1027260.00000 1027258.00000 1470.00000 1027190.12500
 1027250.00000 1027248.00000 1486.00000 1027190.62500
 1027240.00000 1027238.00000 1471.00000 1027190.93750
 1027230.00000 1027228.00000 1455.00000 1027191.18750
 1027220.00000 1027218.00000 1470.00000 1027191.37500
 1027210.00000 1027208.00000 1468.00000 1027191.56250
 1027200.00000 1027198.00000 1485.00000 1027191.68750
 1027190.00000 1027187.93750 1506.00000 1027134.12500
 1027180.00000 1027177.93750 1523.00000 1027129.37500
 1027170.00000 1027167.93750 1470.00000 1027129.87500
 1027160.00000 1027157.93750 1521.00000 1027083.25000
 1027150.00000 1027147.93750 1520.00000 1027083.25000
 1027140.00000 1027137.93750 1501.00000 1027083.81250
 1027130.00000 1027127.93750 1405.00000 1027084.31250
 1027120.00000 1027117.93750 1467.00000 1027084.62500
 1027110.00000 1027107.93750 1483.00000 1027084.87500
 1027100.00000 1027098.00000 1521.00000 1027085.18750
 1027090.00000 1027088.00000 1448.00000 1027059.31250
 1027080.00000 1027078.00000 1436.00000 1027059.31250
 1027070.00000 1027068.00000 1431.00000 1027016.93750
 1027060.00000 1027058.00000 1519.00000 1027014.81250
 1027050.00000 1027048.00000 1467.00000 1027015.37500
 1027040.00000 1027038.00000 1455.00000 1026922.75000
 1027030.00000 1027028.00000 1454.00000 1026918.68750
 1027020.00000 1027018.00000 1488.00000 1026919.68750
 1027010.00000 1027008.00000 1456.00000 1026920.43750
 1027000.00000 1026998.00000 1435.00000 1026921.00000
 1026990.00000 1026988.00000 1453.00000 1026921.50000
 1026980.00000 1026978.00000 1434.00000 1026921.81250
 1026970.00000 1026968.00000 1452.00000 1026909.31250
 1026960.00000 1026958.00000 1453.00000 1026909.50000
 1026950.00000 1026948.00000 1452.00000 1026905.06250
 1026940.00000 1026938.00000 1471.00000 1026878.93750
 1026930.00000 1026927.93750 1436.00000 1026879.31250
 1026920.00000 1026917.93750 1420.00000 1026877.31250
 1026910.00000 1026907.93750 1418.00000 1026877.18750
 1026900.00000 1026897.93750 1418.00000 1026877.37500
 1026890.00000 1026887.93750 1420.00000 1026836.31250
 1026880.00000 1026877.93750 1485.00000 1026814.43750
 1026870.00000 1026867.93750 1447.00000 1026814.87500
 1026860.00000 1026857.93750 1486.00000 1026803.93750
 1026850.00000 1026847.93750 1430.00000 1026793.50000
 1026840.00000 1026838.00000 1450.00000 1026792.68750
 1026830.00000 1026828.00000 1470.00000 1026793.06250
 1026820.00000 1026818.00000 1447.00000 1026793.37500
 1026810.00000 1026808.00000 1383.00000 1026793.56250
 1026800.00000 1026798.00000 1406.00000 1026748.87500
