~Version ---------------------------------------------------
VERS.   2.0 : CWLS log ASCII Standard -VERSION 2.0
WRAP.    NO : One line per depth step
DLM . SPACE : Column Data Section Delimiter
~Well ------------------------------------------------------
STRT.0.1 in 1028280.00000 : START DEPTH
STOP.0.1 in  996610.00000 : STOP DEPTH
STEP.0.1 in     -10.00000 : STEP
NULL.             -999.25 : NULL VALUE
COMP.           PETROBRAS : COMPANY
WELL.      4-BRSA-163-RJS : WELL
FLD .            ALBACORA : FIELD
LOC .                     : LOCATION
PROV.                     : PROVINCE
CNTY.                     : COUNTY
STAT.                     : STATE
CTRY.                     : COUNTRY
SRVC.        Schlumberger : SERVICE COMPANY
DATE. 2002-09-06 08:57:32 : DATE
UWI .         74281020128 : UNIQUE WELL ID
API .         74281020128 : API NUMBER
~Curve Information -----------------------------------------
TDEP.0.1 in  : 1-Inch Frame Depth
IDWD.0.1 in  : Integrated Depth Wheel Depth
TIME.ms      : 1-Inch Frame Time
SCD .0.1 in  : Speed Corrected Depth
~Params ----------------------------------------------------
PROD   .                                                                                                                                                       OP : 
PROG   . ['CMR-A: Combinable Magnetic Resonance Tool - A', 'SGTN: Scintillation Gamma-Ray - N', 'DTCH: DTS Telemetry Tool', 'LEHQT: Logging Equipment Head - QT'] : 
RUN    .                                                                                                                                                    ['1'] : 
DESCENT.                                                                                                                                                   ['-1'] : 
VERSION.                                                                                                                                                 10C0-306 : 
LINEAGE.                                                                                                                               Python-converted from DLIS : 
ORFILE .                                                                                                                        ../inputs/4-brsa-163-rjs_cmr.dlis : 
~Other -----------------------------------------------------
~ASCII -----------------------------------------------------
# ...
 1020830.00000 1020828.00000 1520.00000 1020789.56250
 1020820.00000 1020818.00000 1574.00000 1020787.50000
 1020810.00000 1020808.00000 1470.00000 1020777.25000
 1020800.00000 1020798.00000 1556.00000 1020713.50000
 1020790.00000 1020788.00000 1521.00000 1020713.25000
 1020780.00000 1020778.00000 1572.00000 1020713.87500
 1020770.00000 1020768.00000 1555.00000 1020699.75000
 1020760.00000 1020758.00000 1521.00000 1020698.87500
 1020750.00000 1020748.00000 1541.00000 1020699.31250
 1020740.00000 1020738.00000 1570.00000 1020699.68750
 1020730.00000 1020728.00000 1516.00000 1020695.93750
 1020720.00000 1020718.06250 1522.00000 1020695.93750
 1020710.00000 1020708.06250 1469.00000 1020599.87500
 1020700.00000 1020698.06250 1453.00000 1020591.43750
 1020690.00000 1020688.06250 1506.00000 1020592.31250
 1020680.00000 1020677.93750 1520.00000 1020593.06250
 1020670.00000 1020667.93750 1538.00000 1020593.62500
 1020660.00000 1020657.93750 1540.00000 1020594.06250
 1020650.00000 1020647.93750 1534.00000 1020594.43750
 1020640.00000 1020637.93750 1520.00000 1020575.56250
 1020630.00000 1020628.00000 1470.00000 1020574.62500
 1020620.00000 1020618.00000 1470.00000 1020575.00000
 1020610.00000 1020608.00000 1470.00000 1020539.93750
 1020600.00000 1020598.00000 1438.00000 1020540.18750
 1020590.00000 1020588.00000 1485.00000 1020490.31250
 1020580.00000 1020578.00000 1451.00000 1020456.18750
 1020570.00000 1020568.00000 1470.00000 1020456.87500
 1020560.00000 1020558.00000 1504.00000 1020457.56250
 1020550.00000 1020548.00000 1520.00000 1020458.25000
 1020540.00000 1020538.00000 1488.00000 1020458.62500
 1020530.00000 1020528.00000 1491.00000 1020459.00000
 1020520.00000 1020518.00000 1489.00000 1020459.31250
 1020510.00000 1020508.00000 1488.00000 1020459.50000
 1020500.00000 1020498.00000 1474.00000 1020413.75000
 1020490.00000 1020488.00000 1456.00000 1020374.87500
 1020480.00000 1020478.00000 1506.00000 1020375.43750
 1020470.00000 1020468.00000 1455.00000 1020376.12500
 1020460.00000 1020458.06250 1525.00000 1020376.62500
 1020450.00000 1020448.06250 1439.00000 1020377.00000
 1020440.00000 1020438.06250 1507.00000 1020377.31250
 1020430.00000 1020428.06250 1542.00000 1020362.75000
 1020420.00000 1020417.93750 1522.00000 1020361.25000
 1020410.00000 1020407.93750 1624.00000 1020361.43750
 1020400.00000 1020397.93750 1456.00000 1020318.87500
 1020390.00000 1020387.93750 1540.00000 1020313.00000
 1020380.00000 1020377.93750 1539.00000 1020313.50000
 1020370.00000 1020368.00000 1539.00000 1020313.87500
 1020360.00000 1020358.00000 1540.00000 1020314.12500
 1020350.00000 1020348.00000 1454.00000 1020273.68750
 1020340.00000 1020338.00000 1523.00000 1020263.12500
 1020330.00000 1020328.00000 1505.00000 1020263.56250
 1020320.00000 1020318.00000 1517.00000 1020236.93750
 1020310.00000 1020308.00000 1520.00000 1020218.68750
 1020300.00000 1020298.00000 1467.00000 1020219.25000
 1020290.00000 1020288.00000 1534.00000 1020219.75000
 1020280.00000 1020278.00000 1498.00000 1020220.12500
 1020270.00000 1020268.00000 1517.00000 1020220.43750
 1020260.00000 1020258.00000 1467.00000 1020217.81250
 1020250.00000 1020248.00000 1466.00000 1020176.31250
 1020240.00000 1020238.00000 1468.00000 1020176.62500
 1020230.00000 1020228.00000 1534.00000 1020177.00000
 1020220.00000 1020218.00000 1534.00000 1020157.50000
 1020210.00000 1020208.00000 1502.00000 1020157.75000
 1020200.00000 1020198.06250 1500.00000 1020100.56250
 1020190.00000 1020188.06250 1550.00000 1020096.75000
 1020180.00000 1020178.06250 1500.00000 1020097.37500
 1020170.00000 1020168.06250 1534.00000 1020098.00000
 1020160.00000 1020157.93750 1465.00000 1020098.37500
 1020150.00000 1020147.93750 1515.00000 1020098.62500
 1020140.00000 1020137.93750 1566.00000 1020098.56250
 1020130.00000 1020127.93750 1602.00000 1020026.18750
 1020120.00000 1020117.93750 1500.00000 1020022.31250
 1020110.00000 1020108.00000 1467.00000 1020016.56250
 1020100.00000 1020098.00000 1584.00000 1020007.81250
 1020090.00000 1020088.00000 1483.00000 1020008.31250
 1020080.00000 1020078.00000 1470.00000 1020008.68750
 1020070.00000 1020068.00000 1534.00000 1020009.06250
 1020060.00000 1020058.00000 1538.00000 1020009.25000
 1020050.00000 1020048.00000 1586.00000 1020009.43750
 1020040.00000 1020038.00000 1504.00000 1019966.56250
 1020030.00000 1020028.00000 1500.00000 1019953.62500
 1020020.00000 1020018.00000 1588.00000 1019954.06250
 1020010.00000 1020008.00000 1552.00000 1019954.50000
 1020000.00000 1019998.00000 1518.00000 1019954.87500
 1019990.00000 1019988.00000 1488.00000 1019955.06250
 1019980.00000 1019978.00000 1520.00000 1019955.25000
 1019970.00000 1019968.00000 1554.00000 1019955.43750
 1019960.00000 1019958.00000 1605.00000 1019914.37500
 1019950.00000 1019948.00000 1519.00000 1019820.87500
 1019940.00000 1019938.06250 1486.00000 1019815.93750
 1019930.00000 1019928.06250 1519.00000 1019817.00000
 1019920.00000 1019918.06250 1521.00000 1019817.81250
 1019910.00000 1019908.06250 1554.00000 1019818.43750
 1019900.00000 1019897.93750 1502.00000 1019818.93750
 1019890.00000 1019887.93750 1536.00000 1019819.31250
 1019880.00000 1019877.93750 1552.00000 1019819.62500
 1019870.00000 1019867.93750 1554.00000 1019818.18750
 1019860.00000 1019857.93750 1508.00000 1019754.75000
 1019850.00000 1019848.00000 1492.00000 1019754.75000
 1019840.00000 1019838.00000 1455.00000 1019755.31250
 1019830.00000 1019828.00000 1489.00000 1019746.37500
 1019820.00000 1019818.00000 1539.00000 1019746.75000
 1019810.00000 1019808.00000 1589.00000 1019747.06250
 1019800.00000 1019798.00000 1557.00000 1019734.37500
 1019790.00000 1019788.00000 1541.00000 1019730.81250
 1019780.00000 1019778.00000 1524.00000 1019731.06250
 1019770.00000 1019768.00000 1524.00000 1019714.93750
 1019760.00000 1019758.00000 1556.00000 1019703.31250
 1019750.00000 1019748.00000 1520.00000 1019681.50000
 1019740.00000 1019738.00000 1524.00000 1019623.56250
 1019730.00000 1019728.00000 1520.00000 1019624.00000
 1019720.00000 1019718.00000 1522.00000 1019624.68750
 1019710.00000 1019708.00000 1572.00000 1019625.25000
 1019700.00000 1019698.00000 1591.00000 1019625.75000
 1019690.00000 1019688.00000 1508.00000 1019626.06250
 1019680.00000 1019678.06250 1591.00000 1019626.31250
 1019670.00000 1019668.06250 1590.00000 1019626.50000
 1019660.00000 1019658.06250 1589.00000 1019626.62500
 1019650.00000 1019648.06250 1607.00000 1019570.18750
 1019640.00000 1019637.93750 1536.00000 1019569.68750
 1019630.00000 1019627.93750 1618.00000 1019570.18750
 1019620.00000 1019617.93750 1604.00000 1019515.31250
 1019610.00000 1019607.93750 1502.00000 1019515.62500
 1019600.00000 1019597.93750 1503.00000 1019516.18750
 1019590.00000 1019588.00000 1515.00000 1019516.62500
 1019580.00000 1019578.00000 1533.00000 1019517.06250
 1019570.00000 1019568.00000 1551.00000 1019517.31250
 1019560.00000 1019558.00000 1500.00000 1019482.43750
 1019550.00000 1019548.00000 1502.00000 1019481.00000
 1019540.00000 1019538.00000 1482.00000 1019481.50000
 1019530.00000 1019528.00000 1482.00000 1019474.93750
 1019520.00000 1019518.00000 1482.00000 1019472.43750
 1019510.00000 1019508.00000 1483.00000 1019472.75000
 1019500.00000 1019498.00000 1517.00000 1019435.93750
 1019490.00000 1019488.00000 1549.00000 1019433.68750
 1019480.00000 1019478.00000 1547.00000 1019434.18750
 1019470.00000 1019468.00000 1498.00000 1019389.31250
 1019460.00000 1019458.00000 1518.00000 1019389.31250
 1019450.00000 1019448.00000 1516.00000 1019389.75000
 1019440.00000 1019438.00000 1532.00000 1019387.75000
 1019430.00000 1019428.00000 1518.00000 1019387.68750
 1019420.00000 1019418.06250 1516.00000 1019387.93750
 1019410.00000 1019408.06250 1532.00000 1019367.31250
 1019400.00000 1019398.06250 1568.00000 1019363.75000
 1019390.00000 1019388.06250 1568.00000 1019352.93750
 1019380.00000 1019377.93750 1584.00000 1019285.00000
 1019370.00000 1019367.93750 1582.00000 1019284.62500
 1019360.00000 1019357.93750 1487.00000 1019285.31250
 1019350.00000 1019347.93750 1503.00000 1019285.87500
