~Version ---------------------------------------------------
VERS.   2.0 : CWLS log ASCII Standard -VERSION 2.0
WRAP.    NO : One line per depth step
DLM . SPACE : Column Data Section Delimiter
~Well ------------------------------------------------------
STRT.0.1 in 1028280.00000 : START DEPTH
STOP.0.1 in  996610.00000 : STOP DEPTH
STEP.0.1 in     -10.00000 : STEP
NULL.             -999.25 : NULL VALUE
COMP.           PETROBRAS : COMPANY
WELL.      4-BRSA-163-RJS : WELL
FLD .            ALBACORA : FIELD
LOC .                     : LOCATION
PROV.                     : PROVINCE
CNTY.                     : COUNTY
STAT.                     : STATE
CTRY.                     : COUNTRY
SRVC.        Schlumberger : SERVICE COMPANY
DATE. 2002-09-06 08:57:32 : DATE
UWI .         74281020128 : UNIQUE WELL ID
API .         74281020128 : API NUMBER
~Curve Information -----------------------------------------
TDEP.0.1 in  : 1-Inch Frame Depth
IDWD.0.1 in  : Integrated Depth Wheel Depth
TIME.ms      : 1-Inch Frame Time
SCD .0.1 in  : Speed Corrected Depth
~Params ----------------------------------------------------
PROD   .                                                                                                                                                       OP : 
PROG   . ['CMR-A: Combinable Magnetic Resonance Tool - A', 'SGTN: Scintillation Gamma-Ray - N', 'DTCH: DTS Telemetry Tool', 'LEHQT: Logging Equipment Head - QT'] : 
RUN    .                                                                                                                                                    ['1'] : 
DESCENT.                                                                                                                                                   ['-1'] : 
VERSION.                                                                                                                                                 10C0-306 : 
LINEAGE.                                                                                                                               Python-converted from DLIS : 
ORFILE .                                                                                                                        ../inputs/4-brsa-163-rjs_cmr.dlis : 
~Other -----------------------------------------------------
~ASCII -----------------------------------------------------
# ...
 1023810.00000 1023807.93750 1488.00000 1023719.68750
 1023800.00000 1023797.93750 1523.00000 1023720.06250
 1023790.00000 1023787.93750 1487.00000 1023720.37500
 1023780.00000 1023777.93750 1540.00000 1023705.75000
 1023770.00000 1023767.93750 1455.00000 1023705.87500
 1023760.00000 1023757.93750 1438.00000 1023679.43750
 1023750.00000 1023747.93750 1471.00000 1023615.50000
 1023740.00000 1023737.93750 1456.00000 1023615.81250
 1023730.00000 1023728.00000 1523.00000 1023616.50000
 1023720.00000 1023718.00000 1487.00000 1023617.12500
 1023710.00000 1023708.00000 1572.00000 1023617.56250
 1023700.00000 1023698.00000 1455.00000 1023617.93750
 1023690.00000 1023688.00000 1453.00000 1023614.56250
 1023680.00000 1023678.00000 1436.00000 1023613.81250
 1023670.00000 1023668.00000 1402.00000 1023614.00000
 1023660.00000 1023658.00000 1436.00000 1023576.56250
 1023650.00000 1023648.00000 1488.00000 1023575.75000
 1023640.00000 1023638.00000 1472.00000 1023535.56250
 1023630.00000 1023628.00000 1417.00000 1023518.06250
 1023620.00000 1023618.00000 1485.00000 1023518.75000
 1023610.00000 1023608.00000 1488.00000 1023519.31250
 1023600.00000 1023598.00000 1472.00000 1023519.68750
 1023590.00000 1023588.00000 1502.00000 1023520.06250
 1023580.00000 1023578.00000 1451.00000 1023520.25000
 1023570.00000 1023568.06250 1435.00000 1023515.56250
 1023560.00000 1023558.06250 1452.00000 1023511.87500
 1023550.00000 1023547.93750 1486.00000 1023508.62500
 1023540.00000 1023537.93750 1436.00000 1023433.43750
 1023530.00000 1023527.93750 1522.00000 1023433.00000
 1023520.00000 1023517.93750 1452.00000 1023433.68750
 1023510.00000 1023507.93750 1417.00000 1023434.12500
 1023500.00000 1023497.93750 1521.00000 1023434.50000
 1023490.00000 1023487.93750 1450.00000 1023434.93750
 1023480.00000 1023478.00000 1450.00000 1023435.12500
 1023470.00000 1023468.00000 1519.00000 1023435.31250
 1023460.00000 1023458.00000 1419.00000 1023416.06250
 1023450.00000 1023448.00000 1417.00000 1023336.93750
 1023440.00000 1023438.00000 1416.00000 1023336.37500
 1023430.00000 1023428.00000 1533.00000 1023337.06250
 1023420.00000 1023418.00000 1414.00000 1023332.93750
 1023410.00000 1023408.00000 1438.00000 1023333.12500
 1023400.00000 1023398.00000 1467.00000 1023333.50000
 1023390.00000 1023388.00000 1467.00000 1023272.37500
 1023380.00000 1023378.00000 1520.00000 1023270.75000
 1023370.00000 1023368.00000 1537.00000 1023271.43750
 1023360.00000 1023358.00000 1437.00000 1023271.87500
 1023350.00000 1023348.00000 1422.00000 1023272.25000
 1023340.00000 1023338.00000 1452.00000 1023272.56250
 1023330.00000 1023328.00000 1490.00000 1023251.87500
 1023320.00000 1023318.00000 1407.00000 1023246.81250
 1023310.00000 1023308.06250 1423.00000 1023247.06250
 1023300.00000 1023298.06250 1442.00000 1023221.81250
 1023290.00000 1023288.06250 1525.00000 1023220.93750
 1023280.00000 1023277.93750 1474.00000 1023221.31250
 1023270.00000 1023267.93750 1473.00000 1023201.31250
 1023260.00000 1023257.93750 1444.00000 1023201.06250
 1023250.00000 1023247.93750 1408.00000 1023201.31250
 1023240.00000 1023237.93750 1456.00000 1023158.56250
 1023230.00000 1023227.93750 1441.00000 1023156.25000
 1023220.00000 1023218.00000 1389.00000 1023133.75000
 1023210.00000 1023208.00000 1442.00000 1023133.31250
 1023200.00000 1023198.00000 1426.00000 1023133.75000
 1023190.00000 1023188.00000 1458.00000 1023134.12500
 1023180.00000 1023178.00000 1476.00000 1023108.37500
 1023170.00000 1023168.00000 1425.00000 1023090.62500
 1023160.00000 1023158.00000 1389.00000 1023091.06250
 1023150.00000 1023148.00000 1390.00000 1023066.68750
 1023140.00000 1023138.00000 1390.00000 1023065.50000
 1023130.00000 1023128.00000 1387.00000 1023065.93750
 1023120.00000 1023118.00000 1387.00000 1023062.81250
 1023110.00000 1023108.00000 1439.00000 1023063.12500
 1023100.00000 1023098.00000 1369.00000 1023063.31250
 1023090.00000 1023088.00000 1354.00000 1023063.50000
 1023080.00000 1023078.00000 1421.00000 1023048.25000
 1023070.00000 1023068.00000 1351.00000 1023037.56250
 1023060.00000 1023058.00000 1387.00000 1022996.81250
 1023050.00000 1023048.06250 1421.00000 1022992.56250
 1023040.00000 1023038.06250 1454.00000 1022993.06250
 1023030.00000 1023028.06250 1472.00000 1022979.62500
 1023020.00000 1023017.93750 1434.00000 1022979.00000
 1023010.00000 1023007.93750 1384.00000 1022979.37500
 1023000.00000 1022997.93750 1418.00000 1022963.56250
 1022990.00000 1022987.93750 1436.00000 1022963.06250
 1022980.00000 1022977.93750 1370.00000 1022944.87500
 1022970.00000 1022967.93750 1402.00000 1022881.18750
 1022960.00000 1022958.00000 1404.00000 1022875.31250
 1022950.00000 1022948.00000 1422.00000 1022876.06250
 1022940.00000 1022938.00000 1402.00000 1022871.75000
 1022930.00000 1022928.00000 1400.00000 1022868.87500
 1022920.00000 1022918.00000 1386.00000 1022869.25000
 1022910.00000 1022908.00000 1371.00000 1022869.62500
 1022900.00000 1022898.00000 1439.00000 1022869.93750
 1022890.00000 1022888.00000 1386.00000 1022858.37500
 1022880.00000 1022878.00000 1385.00000 1022793.68750
 1022870.00000 1022868.00000 1417.00000 1022793.25000
 1022860.00000 1022858.00000 1452.00000 1022793.87500
 1022850.00000 1022848.00000 1483.00000 1022794.25000
 1022840.00000 1022838.00000 1369.00000 1022794.50000
 1022830.00000 1022828.00000 1420.00000 1022794.75000
 1022820.00000 1022818.00000 1366.00000 1022717.50000
 1022810.00000 1022808.00000 1400.00000 1022694.43750
 1022800.00000 1022798.00000 1418.00000 1022695.06250
 1022790.00000 1022788.06250 1452.00000 1022695.87500
 1022780.00000 1022778.06250 1454.00000 1022696.43750
 1022770.00000 1022768.06250 1434.00000 1022696.93750
 1022760.00000 1022757.93750 1450.00000 1022687.12500
 1022750.00000 1022747.93750 1452.00000 1022687.00000
 1022740.00000 1022737.93750 1367.00000 1022687.31250
 1022730.00000 1022727.93750 1365.00000 1022687.50000
 1022720.00000 1022717.93750 1368.00000 1022687.68750
 1022710.00000 1022707.93750 1383.00000 1022687.81250
 1022700.00000 1022698.00000 1433.00000 1022617.81250
 1022690.00000 1022688.00000 1382.00000 1022598.93750
 1022680.00000 1022678.00000 1346.00000 1022599.56250
 1022670.00000 1022668.00000 1350.00000 1022565.12500
 1022660.00000 1022658.00000 1414.00000 1022562.25000
 1022650.00000 1022648.00000 1386.00000 1022562.93750
 1022640.00000 1022638.00000 1336.00000 1022554.00000
 1022630.00000 1022628.00000 1338.00000 1022552.93750
 1022620.00000 1022618.00000 1422.00000 1022553.43750
 1022610.00000 1022608.00000 1470.00000 1022553.68750
 1022600.00000 1022598.00000 1420.00000 1022532.62500
 1022590.00000 1022588.00000 1438.00000 1022530.06250
 1022580.00000 1022578.00000 1370.00000 1022499.75000
 1022570.00000 1022568.00000 1369.00000 1022467.93750
 1022560.00000 1022558.00000 1438.00000 1022468.43750
 1022550.00000 1022548.00000 1423.00000 1022469.00000
 1022540.00000 1022538.00000 1402.00000 1022469.50000
 1022530.00000 1022528.06250 1371.00000 1022469.81250
 1022520.00000 1022518.06250 1407.00000 1022467.31250
 1022510.00000 1022508.06250 1423.00000 1022429.12500
 1022500.00000 1022497.93750 1389.00000 1022429.25000
 1022490.00000 1022487.93750 1372.00000 1022424.62500
 1022480.00000 1022477.93750 1338.00000 1022419.87500
 1022470.00000 1022467.93750 1421.00000 1022420.18750
 1022460.00000 1022457.93750 1441.00000 1022420.06250
 1022450.00000 1022447.93750 1422.00000 1022378.68750
 1022440.00000 1022438.00000 1406.00000 1022378.50000
 1022430.00000 1022428.00000 1373.00000 1022340.00000
 1022420.00000 1022418.00000 1405.00000 1022313.12500
 1022410.00000 1022408.00000 1370.00000 1022313.81250
 1022400.00000 1022398.00000 1403.00000 1022314.37500
 1022390.00000 1022388.00000 1354.00000 1022309.75000
 1022380.00000 1022378.00000 1386.00000 1022310.25000
 1022370.00000 1022368.00000 1455.00000 1022310.50000
 1022360.00000 1022358.00000 1422.00000 1022279.93750
 1022350.00000 1022348.00000 1436.00000 1022278.62500
 1022340.00000 1022338.00000 1404.00000 1022279.00000
 1022330.00000 1022328.00000 1438.00000 1022270.56250
