~Version ---------------------------------------------------
VERS.   2.0 : CWLS log ASCII Standard -VERSION 2.0
WRAP.    NO : One line per depth step
DLM . SPACE : Column Data Section Delimiter
~Well ------------------------------------------------------
STRT.0.1 in 1028280.00000 : START DEPTH
STOP.0.1 in  996610.00000 : STOP DEPTH
STEP.0.1 in     -10.00000 : STEP
NULL.             -999.25 : NULL VALUE
COMP.           PETROBRAS : COMPANY
WELL.      4-BRSA-163-RJS : WELL
FLD .            ALBACORA : FIELD
LOC .                     : LOCATION
PROV.                     : PROVINCE
CNTY.                     : COUNTY
STAT.                     : STATE
CTRY.                     : COUNTRY
SRVC.        Schlumberger : SERVICE COMPANY
DATE. 2002-09-06 08:57:32 : DATE
UWI .         74281020128 : UNIQUE WELL ID
API .         74281020128 : API NUMBER
~Curve Information -----------------------------------------
TDEP.0.1 in  : 1-Inch Frame Depth
IDWD.0.1 in  : Integrated Depth Wheel Depth
TIME.ms      : 1-Inch Frame Time
SCD .0.1 in  : Speed Corrected Depth
~Params ----------------------------------------------------
PROD   .                                                                                                                                                       OP : 
PROG   . ['CMR-A: Combinable Magnetic Resonance Tool - A', 'SGTN: Scintillation Gamma-Ray - N', 'DTCH: DTS Telemetry Tool', 'LEHQT: Logging Equipment Head - QT'] : 
RUN    .                                                                                                                                                    ['1'] : 
DESCENT.                                                                                                                                                   ['-1'] : 
VERSION.                                                                                                                                                 10C0-306 : 
LINEAGE.                                                                                                                               Python-converted from DLIS : 
ORFILE .                                                                                                                        ../inputs/4-brsa-163-rjs_cmr.dlis : 
~Other -----------------------------------------------------
~ASCII -----------------------------------------------------
# ...
 1022320.00000 1022318.00000 1422.00000 1022268.12500
 1022310.00000 1022308.00000 1438.00000 1022205.37500
 1022300.00000 1022298.00000 1472.00000 1022197.18750
 1022290.00000 1022288.00000 1352.00000 1022197.87500
 1022280.00000 1022278.00000 1384.00000 1022198.43750
 1022270.00000 1022268.06250 1422.00000 1022198.93750
 1022260.00000 1022258.06250 1420.00000 1022199.18750
 1022250.00000 1022248.06250 1453.00000 1022182.68750
 1022240.00000 1022237.93750 1403.00000 1022177.68750
 1022230.00000 1022227.93750 1389.00000 1022178.06250
 1022220.00000 1022217.93750 1369.00000 1022154.43750
 1022210.00000 1022207.93750 1437.00000 1022126.93750
 1022200.00000 1022197.93750 1420.00000 1022127.25000
 1022190.00000 1022187.93750 1371.00000 1022086.56250
 1022180.00000 1022178.00000 1456.00000 1022049.00000
 1022170.00000 1022168.00000 1403.00000 1022049.75000
 1022160.00000 1022158.00000 1521.00000 1022050.50000
 1022150.00000 1022148.00000 1589.00000 1022051.12500
 1022140.00000 1022138.00000 1451.00000 1022051.56250
 1022130.00000 1022128.00000 1572.00000 1022051.93750
 1022120.00000 1022118.00000 1437.00000 1022009.00000
 1022110.00000 1022108.00000 1520.00000 1022001.62500
 1022100.00000 1022098.00000 1523.00000 1022002.18750
 1022090.00000 1022088.00000 1454.00000 1022002.56250
 1022080.00000 1022078.00000 1521.00000 1022002.93750
 1022070.00000 1022068.00000 1505.00000 1022003.25000
 1022060.00000 1022058.00000 1538.00000 1022003.43750
 1022050.00000 1022048.00000 1440.00000 1022003.50000
 1022040.00000 1022038.00000 1470.00000 1021996.00000
 1022030.00000 1022028.00000 1472.00000 1021942.37500
 1022020.00000 1022018.00000 1453.00000 1021942.56250
 1022010.00000 1022008.06250 1541.00000 1021943.06250
 1022000.00000 1021998.06250 1519.00000 1021943.43750
 1021990.00000 1021988.06250 1487.00000 1021943.75000
 1021980.00000 1021977.93750 1434.00000 1021943.93750
 1021970.00000 1021967.93750 1403.00000 1021944.12500
 1021960.00000 1021957.93750 1453.00000 1021944.18750
 1021950.00000 1021947.93750 1418.00000 1021905.68750
 1021940.00000 1021937.93750 1470.00000 1021847.43750
 1021930.00000 1021927.93750 1436.00000 1021848.00000
 1021920.00000 1021918.00000 1423.00000 1021848.68750
 1021910.00000 1021908.00000 1505.00000 1021840.37500
 1021900.00000 1021898.00000 1492.00000 1021840.87500
 1021890.00000 1021888.00000 1389.00000 1021841.18750
 1021880.00000 1021878.00000 1422.00000 1021841.56250
 1021870.00000 1021868.00000 1421.00000 1021841.75000
 1021860.00000 1021858.00000 1472.00000 1021841.93750
 1021850.00000 1021848.00000 1456.00000 1021808.37500
 1021840.00000 1021838.00000 1440.00000 1021801.87500
 1021830.00000 1021828.00000 1455.00000 1021801.50000
 1021820.00000 1021818.00000 1508.00000 1021754.06250
 1021810.00000 1021808.00000 1471.00000 1021754.31250
 1021800.00000 1021798.00000 1405.00000 1021754.75000
 1021790.00000 1021788.00000 1389.00000 1021746.50000
 1021780.00000 1021778.00000 1424.00000 1021746.81250
 1021770.00000 1021768.00000 1488.00000 1021747.06250
 1021760.00000 1021758.00000 1507.00000 1021736.62500
 1021750.00000 1021748.06250 1455.00000 1021711.25000
 1021740.00000 1021738.06250 1423.00000 1021711.50000
 1021730.00000 1021728.06250 1454.00000 1021702.93750
 1021720.00000 1021717.93750 1471.00000 1021701.31250
 1021710.00000 1021707.93750 1402.00000 1021690.37500
 1021700.00000 1021697.93750 1436.00000 1021638.18750
 1021690.00000 1021687.93750 1454.00000 1021638.43750
 1021680.00000 1021677.93750 1454.00000 1021639.06250
 1021670.00000 1021667.93750 1486.00000 1021639.50000
 1021660.00000 1021658.00000 1470.00000 1021637.18750
 1021650.00000 1021648.00000 1440.00000 1021578.31250
 1021640.00000 1021638.00000 1455.00000 1021571.56250
 1021630.00000 1021628.00000 1453.00000 1021572.12500
 1021620.00000 1021618.00000 1472.00000 1021572.68750
 1021610.00000 1021608.00000 1469.00000 1021573.12500
 1021600.00000 1021598.00000 1487.00000 1021573.37500
 1021590.00000 1021588.00000 1505.00000 1021573.68750
 1021580.00000 1021578.00000 1471.00000 1021476.18750
 1021570.00000 1021568.00000 1438.00000 1021473.87500
 1021560.00000 1021558.00000 1439.00000 1021474.68750
 1021550.00000 1021548.00000 1420.00000 1021475.37500
 1021540.00000 1021538.00000 1371.00000 1021475.93750
 1021530.00000 1021528.00000 1456.00000 1021476.31250
 1021520.00000 1021518.00000 1456.00000 1021476.68750
 1021510.00000 1021508.00000 1434.00000 1021476.87500
 1021500.00000 1021498.00000 1422.00000 1021477.06250
 1021490.00000 1021488.06250 1439.00000 1021453.25000
 1021480.00000 1021478.06250 1405.00000 1021452.87500
 1021470.00000 1021468.06250 1454.00000 1021447.37500
 1021460.00000 1021457.93750 1370.00000 1021379.50000
 1021450.00000 1021447.93750 1372.00000 1021377.68750
 1021440.00000 1021437.93750 1418.00000 1021378.37500
 1021430.00000 1021427.93750 1388.00000 1021352.68750
 1021420.00000 1021417.93750 1438.00000 1021353.06250
 1021410.00000 1021407.93750 1438.00000 1021353.56250
 1021400.00000 1021398.00000 1454.00000 1021354.06250
 1021390.00000 1021388.00000 1406.00000 1021354.31250
 1021380.00000 1021378.00000 1388.00000 1021354.50000
 1021370.00000 1021368.00000 1456.00000 1021301.06250
 1021360.00000 1021358.00000 1440.00000 1021297.43750
 1021350.00000 1021348.00000 1439.00000 1021297.93750
 1021340.00000 1021338.00000 1421.00000 1021216.87500
 1021330.00000 1021328.00000 1420.00000 1021214.87500
 1021320.00000 1021318.00000 1454.00000 1021215.75000
 1021310.00000 1021308.00000 1508.00000 1021216.50000
 1021300.00000 1021298.00000 1506.00000 1021217.06250
 1021290.00000 1021288.00000 1440.00000 1021217.43750
 1021280.00000 1021278.00000 1421.00000 1021217.75000
 1021270.00000 1021268.00000 1437.00000 1021218.06250
 1021260.00000 1021258.00000 1434.00000 1021218.25000
 1021250.00000 1021248.00000 1437.00000 1021185.43750
 1021240.00000 1021238.06250 1402.00000 1021148.37500
 1021230.00000 1021228.06250 1455.00000 1021148.75000
 1021220.00000 1021218.06250 1423.00000 1021149.18750
 1021210.00000 1021208.06250 1475.00000 1021149.62500
 1021200.00000 1021197.93750 1474.00000 1021150.00000
 1021190.00000 1021187.93750 1438.00000 1021071.81250
 1021180.00000 1021177.93750 1440.00000 1021041.06250
 1021170.00000 1021167.93750 1422.00000 1021041.93750
 1021160.00000 1021157.93750 1456.00000 1021042.75000
 1021150.00000 1021147.93750 1506.00000 1021043.31250
 1021140.00000 1021138.00000 1474.00000 1021043.75000
 1021130.00000 1021128.00000 1475.00000 1021044.18750
 1021120.00000 1021118.00000 1423.00000 1021044.43750
 1021110.00000 1021108.00000 1424.00000 1021044.62500
 1021100.00000 1021098.00000 1390.00000 1021007.43750
 1021090.00000 1021088.00000 1405.00000 1021003.68750
 1021080.00000 1021078.00000 1439.00000 1021004.06250
 1021070.00000 1021068.00000 1422.00000 1020983.00000
 1021060.00000 1021058.00000 1438.00000 1020982.43750
 1021050.00000 1021048.00000 1470.00000 1020982.81250
 1021040.00000 1021038.00000 1440.00000 1020983.12500
 1021030.00000 1021028.00000 1404.00000 1020983.31250
 1021020.00000 1021018.00000 1406.00000 1020983.50000
 1021010.00000 1021008.00000 1422.00000 1020979.68750
 1021000.00000 1020998.00000 1450.00000 1020955.06250
 1020990.00000 1020988.00000 1500.00000 1020955.06250
 1020980.00000 1020978.06250 1404.00000 1020871.75000
 1020970.00000 1020968.06250 1467.00000 1020862.81250
 1020960.00000 1020958.06250 1501.00000 1020863.62500
 1020950.00000 1020948.06250 1501.00000 1020854.62500
 1020940.00000 1020937.93750 1501.00000 1020854.06250
 1020930.00000 1020927.93750 1454.00000 1020854.50000
 1020920.00000 1020917.93750 1502.00000 1020854.87500
 1020910.00000 1020907.93750 1517.00000 1020855.18750
 1020900.00000 1020897.93750 1516.00000 1020855.50000
 1020890.00000 1020888.00000 1583.00000 1020835.75000
 1020880.00000 1020878.00000 1489.00000 1020795.18750
 1020870.00000 1020868.00000 1519.00000 1020795.50000
 1020860.00000 1020858.00000 1520.00000 1020796.06250
 1020850.00000 1020848.00000 1536.00000 1020796.43750
 1020840.00000 1020838.00000 1520.00000 1020796.75000
