~Version ---------------------------------------------------
VERS.   2.0 : CWLS log ASCII Standard -VERSION 2.0
WRAP.    NO : One line per depth step
DLM . SPACE : Column Data Section Delimiter
~Well ------------------------------------------------------
STRT.0.1 in 1028280.00000 : START DEPTH
STOP.0.1 in  996610.00000 : STOP DEPTH
STEP.0.1 in     -10.00000 : STEP
NULL.             -999.25 : NULL VALUE
COMP.           PETROBRAS : COMPANY
WELL.      4-BRSA-163-RJS : WELL
FLD .            ALBACORA : FIELD
LOC .                     : LOCATION
PROV.                     : PROVINCE
CNTY.                     : COUNTY
STAT.                     : STATE
CTRY.                     : COUNTRY
SRVC.        Schlumberger : SERVICE COMPANY
DATE. 2002-09-06 08:57:32 : DATE
UWI .         74281020128 : UNIQUE WELL ID
API .         74281020128 : API NUMBER
~Curve Information -----------------------------------------
TDEP.0.1 in  : 1-Inch Frame Depth
IDWD.0.1 in  : Integrated Depth Wheel Depth
TIME.ms      : 1-Inch Frame Time
SCD .0.1 in  : Speed Corrected Depth
~Params ----------------------------------------------------
PROD   .                                                                                                                                                       OP : 
PROG   . ['CMR-A: Combinable Magnetic Resonance Tool - A', 'SGTN: Scintillation Gamma-Ray - N', 'DTCH: DTS Telemetry Tool', 'LEHQT: Logging Equipment Head - QT'] : 
RUN    .                                                                                                                                                    ['1'] : 
DESCENT.                                                                                                                                                   ['-1'] : 
VERSION.                                                                                                                                                 10C0-306 : 
LINEAGE.                                                                                                                               Python-converted from DLIS : 
ORFILE .                                                                                                                        ../inputs/4-brsa-163-rjs_cmr.dlis : 
~Other -----------------------------------------------------
~ASCII -----------------------------------------------------
# ...
 1016360.00000 1016358.00000 1472.00000 1016239.62500
 1016350.00000 1016348.00000 1472.00000 1016235.68750
 1016340.00000 1016338.00000 1506.00000 1016236.50000
 1016330.00000 1016328.00000 1591.00000 1016237.31250
 1016320.00000 1016318.00000 1540.00000 1016237.75000
 1016310.00000 1016308.06250 1491.00000 1016234.68750
 1016300.00000 1016298.06250 1506.00000 1016226.25000
 1016290.00000 1016288.06250 1522.00000 1016226.50000
 1016280.00000 1016278.06250 1524.00000 1016226.81250
 1016270.00000 1016268.06250 1488.00000 1016227.00000
 1016260.00000 1016258.06250 1488.00000 1016227.18750
 1016250.00000 1016247.93750 1523.00000 1016227.31250
 1016240.00000 1016237.93750 1451.00000 1016174.43750
 1016230.00000 1016227.93750 1468.00000 1016171.56250
 1016220.00000 1016218.00000 1487.00000 1016172.12500
 1016210.00000 1016208.00000 1485.00000 1016096.56250
 1016200.00000 1016198.00000 1450.00000 1016094.00000
 1016190.00000 1016188.00000 1487.00000 1016094.87500
 1016180.00000 1016178.00000 1469.00000 1016095.43750
 1016170.00000 1016168.00000 1516.00000 1016096.00000
 1016160.00000 1016158.00000 1520.00000 1016096.37500
 1016150.00000 1016148.00000 1482.00000 1016096.68750
 1016140.00000 1016138.00000 1519.00000 1016093.00000
 1016130.00000 1016128.00000 1431.00000 1016093.18750
 1016120.00000 1016118.00000 1482.00000 1016046.12500
 1016110.00000 1016108.00000 1518.00000 1016041.68750
 1016100.00000 1016098.00000 1484.00000 1016042.18750
 1016090.00000 1016088.00000 1536.00000 1016042.56250
 1016080.00000 1016078.00000 1500.00000 1016042.87500
 1016070.00000 1016068.00000 1519.00000 1016043.12500
 1016060.00000 1016058.00000 1465.00000 1016019.56250
 1016050.00000 1016048.06250 1536.00000 1016019.75000
 1016040.00000 1016038.06250 1582.00000 1016020.06250
 1016030.00000 1016028.06250 1600.00000 1016015.75000
 1016020.00000 1016018.06250 1500.00000 1016002.18750
 1016010.00000 1016008.06250 1482.00000 1016002.50000
 1016000.00000 1015998.06250 1499.00000 1015981.43750
 1015990.00000 1015987.93750 1467.00000 1015959.12500
 1015980.00000 1015977.93750 1449.00000 1015959.50000
 1015970.00000 1015967.93750 1548.00000 1015930.93750
 1015960.00000 1015958.00000 1499.00000 1015930.00000
 1015950.00000 1015948.00000 1564.00000 1015867.06250
 1015940.00000 1015938.00000 1597.00000 1015816.18750
 1015930.00000 1015928.00000 1586.00000 1015817.37500
 1015920.00000 1015918.00000 1581.00000 1015818.31250
 1015910.00000 1015908.00000 1498.00000 1015819.06250
 1015900.00000 1015898.00000 1548.00000 1015819.68750
 1015890.00000 1015888.00000 1530.00000 1015820.06250
 1015880.00000 1015878.00000 1550.00000 1015820.43750
 1015870.00000 1015868.00000 1515.00000 1015816.12500
 1015860.00000 1015858.00000 1617.00000 1015816.31250
 1015850.00000 1015848.00000 1584.00000 1015740.06250
 1015840.00000 1015838.00000 1550.00000 1015738.31250
 1015830.00000 1015828.00000 1580.00000 1015739.00000
 1015820.00000 1015818.00000 1500.00000 1015732.31250
 1015810.00000 1015808.00000 1550.00000 1015732.68750
 1015800.00000 1015798.06250 1530.00000 1015733.06250
 1015790.00000 1015788.06250 1572.00000 1015733.37500
 1015780.00000 1015778.06250 1604.00000 1015733.62500
 1015770.00000 1015768.06250 1488.00000 1015733.75000
 1015760.00000 1015758.06250 1505.00000 1015695.25000
 1015750.00000 1015748.06250 1505.00000 1015691.43750
 1015740.00000 1015738.06250 1540.00000 1015691.81250
 1015730.00000 1015727.93750 1522.00000 1015652.00000
 1015720.00000 1015717.93750 1470.00000 1015644.62500
 1015710.00000 1015707.93750 1540.00000 1015645.18750
 1015700.00000 1015698.00000 1538.00000 1015644.31250
 1015690.00000 1015688.00000 1624.00000 1015644.62500
 1015680.00000 1015678.00000 1554.00000 1015644.93750
 1015670.00000 1015668.00000 1504.00000 1015596.37500
 1015660.00000 1015658.00000 1540.00000 1015595.43750
 1015650.00000 1015648.00000 1556.00000 1015595.87500
 1015640.00000 1015638.00000 1524.00000 1015535.75000
 1015630.00000 1015628.00000 1504.00000 1015534.75000
 1015620.00000 1015618.00000 1472.00000 1015535.43750
 1015610.00000 1015608.00000 1557.00000 1015535.93750
 1015600.00000 1015598.00000 1607.00000 1015536.37500
 1015590.00000 1015588.00000 1524.00000 1015536.68750
 1015580.00000 1015578.00000 1466.00000 1015536.87500
 1015570.00000 1015568.00000 1450.00000 1015537.06250
 1015560.00000 1015558.00000 1504.00000 1015537.25000
 1015550.00000 1015548.00000 1538.00000 1015523.81250
 1015540.00000 1015538.06250 1468.00000 1015483.31250
 1015530.00000 1015528.06250 1484.00000 1015483.56250
 1015520.00000 1015518.06250 1500.00000 1015483.93750
 1015510.00000 1015508.06250 1486.00000 1015484.31250
 1015500.00000 1015498.06250 1519.00000 1015484.50000
 1015490.00000 1015488.06250 1571.00000 1015439.12500
 1015480.00000 1015478.06250 1536.00000 1015404.25000
 1015470.00000 1015467.93750 1496.00000 1015404.93750
 1015460.00000 1015457.93750 1484.00000 1015375.37500
 1015450.00000 1015448.00000 1554.00000 1015375.12500
 1015440.00000 1015438.00000 1550.00000 1015375.81250
 1015430.00000 1015428.00000 1552.00000 1015376.25000
 1015420.00000 1015418.00000 1550.00000 1015376.56250
 1015410.00000 1015408.00000 1501.00000 1015376.81250
 1015400.00000 1015398.00000 1501.00000 1015320.12500
 1015390.00000 1015388.00000 1516.00000 1015302.06250
 1015380.00000 1015378.00000 1567.00000 1015302.56250
 1015370.00000 1015368.00000 1635.00000 1015303.12500
 1015360.00000 1015358.00000 1618.00000 1015303.62500
 1015350.00000 1015348.00000 1566.00000 1015304.00000
 1015340.00000 1015338.00000 1646.00000 1015304.18750
 1015330.00000 1015328.00000 1600.00000 1015304.37500
 1015320.00000 1015318.00000 1545.00000 1015304.56250
 1015310.00000 1015308.00000 1567.00000 1015289.50000
 1015300.00000 1015298.00000 1584.00000 1015284.06250
 1015290.00000 1015288.00000 1613.00000 1015284.37500
 1015280.00000 1015278.06250 1631.00000 1015211.50000
 1015270.00000 1015268.06250 1630.00000 1015198.37500
 1015260.00000 1015258.06250 1682.00000 1015199.18750
 1015250.00000 1015248.06250 1680.00000 1015199.81250
 1015240.00000 1015238.06250 1634.00000 1015200.25000
 1015230.00000 1015228.06250 1614.00000 1015200.68750
 1015220.00000 1015218.06250 1566.00000 1015197.56250
 1015210.00000 1015207.93750 1564.00000 1015190.75000
 1015200.00000 1015197.93750 1597.00000 1015190.93750
 1015190.00000 1015188.00000 1547.00000 1015136.62500
 1015180.00000 1015178.00000 1597.00000 1015116.81250
 1015170.00000 1015168.00000 1617.00000 1015117.50000
 1015160.00000 1015158.00000 1548.00000 1015114.06250
 1015150.00000 1015148.00000 1464.00000 1015105.00000
 1015140.00000 1015138.00000 1481.00000 1015105.37500
 1015130.00000 1015128.00000 1483.00000 1015105.81250
 1015120.00000 1015118.00000 1519.00000 1015100.68750
 1015110.00000 1015108.00000 1505.00000 1015100.87500
 1015100.00000 1015098.00000 1470.00000 1015047.06250
 1015090.00000 1015088.00000 1556.00000 1015031.68750
 1015080.00000 1015078.00000 1520.00000 1015032.37500
 1015070.00000 1015068.00000 1536.00000 1015032.93750
 1015060.00000 1015058.00000 1490.00000 1015033.31250
 1015050.00000 1015048.00000 1437.00000 1015033.62500
 1015040.00000 1015038.00000 1503.00000 1015033.87500
 1015030.00000 1015028.00000 1487.00000 1015014.18750
 1015020.00000 1015018.06250 1552.00000 1015012.81250
 1015010.00000 1015008.06250 1487.00000 1014938.56250
 1015000.00000 1014998.06250 1454.00000 1014905.31250
 1014990.00000 1014988.06250 1488.00000 1014906.25000
 1014980.00000 1014978.06250 1454.00000 1014907.00000
 1014970.00000 1014968.06250 1504.00000 1014907.68750
 1014960.00000 1014958.06250 1506.00000 1014908.18750
 1014950.00000 1014947.93750 1472.00000 1014908.56250
 1014940.00000 1014937.93750 1557.00000 1014908.81250
 1014930.00000 1014928.00000 1471.00000 1014909.12500
 1014920.00000 1014918.00000 1450.00000 1014904.43750
 1014910.00000 1014908.00000 1452.00000 1014849.06250
 1014900.00000 1014898.00000 1432.00000 1014846.93750
 1014890.00000 1014888.00000 1500.00000 1014846.75000
 1014880.00000 1014878.00000 1432.00000 1014791.68750
