~Version ---------------------------------------------------
VERS.   2.0 : CWLS log ASCII Standard -VERSION 2.0
WRAP.    NO : One line per depth step
DLM . SPACE : Column Data Section Delimiter
~Well ------------------------------------------------------
STRT.0.1 in 1028280.00000 : START DEPTH
STOP.0.1 in  996610.00000 : STOP DEPTH
STEP.0.1 in     -10.00000 : STEP
NULL.             -999.25 : NULL VALUE
COMP.           PETROBRAS : COMPANY
WELL.      4-BRSA-163-RJS : WELL
FLD .            ALBACORA : FIELD
LOC .                     : LOCATION
PROV.                     : PROVINCE
CNTY.                     : COUNTY
STAT.                     : STATE
CTRY.                     : COUNTRY
SRVC.        Schlumberger : SERVICE COMPANY
DATE. 2002-09-06 08:57:32 : DATE
UWI .         74281020128 : UNIQUE WELL ID
API .         74281020128 : API NUMBER
~Curve Information -----------------------------------------
TDEP.0.1 in  : 1-Inch Frame Depth
IDWD.0.1 in  : Integrated Depth Wheel Depth
TIME.ms      : 1-Inch Frame Time
SCD .0.1 in  : Speed Corrected Depth
~Params ----------------------------------------------------
PROD   .                                                                                                                                                       OP : 
PROG   . ['CMR-A: Combinable Magnetic Resonance Tool - A', 'SGTN: Scintillation Gamma-Ray - N', 'DTCH: DTS Telemetry Tool', 'LEHQT: Logging Equipment Head - QT'] : 
RUN    .                                                                                                                                                    ['1'] : 
DESCENT.                                                                                                                                                   ['-1'] : 
VERSION.                                                                                                                                                 10C0-306 : 
LINEAGE.                                                                                                                               Python-converted from DLIS : 
ORFILE .                                                                                                                        ../inputs/4-brsa-163-rjs_cmr.dlis : 
~Other -----------------------------------------------------
~ASCII -----------------------------------------------------
# ...
 999970.00000 999968.06250 1478.00000 999937.50000
 999960.00000 999958.06250 1460.00000 999874.25000
 999950.00000 999948.06250 1464.00000 999845.12500
 999940.00000 999938.06250 1561.00000 999845.87500
 999930.00000 999928.06250 1565.00000 999846.56250
 999920.00000 999918.06250 1532.00000 999847.00000
 999910.00000 999908.06250 1496.00000 999847.43750
 999900.00000 999898.06250 1549.00000 999830.37500
 999890.00000 999888.06250 1585.00000 999826.18750
 999880.00000 999878.06250 1547.00000 999826.56250
 999870.00000 999868.06250 1529.00000 999826.87500
 999860.00000 999858.06250 1531.00000 999827.06250
 999850.00000 999848.00000 1478.00000 999827.12500
 999840.00000 999838.00000 1580.00000 999807.68750
 999830.00000 999828.00000 1634.00000 999786.93750
 999820.00000 999818.00000 1554.00000 999787.31250
 999810.00000 999808.00000 1622.00000 999776.56250
 999800.00000 999798.00000 1703.00000 999734.37500
 999790.00000 999788.00000 1670.00000 999734.68750
 999780.00000 999778.00000 1586.00000 999681.06250
 999770.00000 999768.00000 1551.00000 999672.37500
 999760.00000 999758.00000 1517.00000 999673.12500
 999750.00000 999748.00000 1413.00000 999673.75000
 999740.00000 999738.06250 1721.00000 999674.31250
 999730.00000 999728.06250 1516.00000 999674.56250
 999720.00000 999718.06250 1482.00000 999670.00000
 999710.00000 999708.06250 1398.00000 999637.68750
 999700.00000 999698.06250 1344.00000 999637.68750
 999690.00000 999688.06250 1548.00000 999618.25000
 999680.00000 999678.06250 1496.00000 999611.37500
 999670.00000 999668.06250 1466.00000 999611.81250
 999660.00000 999658.06250 1464.00000 999601.93750
 999650.00000 999648.06250 1535.00000 999597.87500
 999640.00000 999638.06250 1581.00000 999598.25000
 999630.00000 999628.06250 1565.00000 999598.56250
 999620.00000 999618.06250 1579.00000 999598.75000
 999610.00000 999608.06250 1614.00000 999598.87500
 999600.00000 999598.06250 1630.00000 999518.18750
 999590.00000 999588.00000 1615.00000 999510.68750
 999580.00000 999578.00000 1631.00000 999511.50000
 999570.00000 999568.00000 1596.00000 999512.06250
 999560.00000 999558.00000 1564.00000 999506.68750
 999550.00000 999548.00000 1580.00000 999506.68750
 999540.00000 999538.00000 1530.00000 999471.50000
 999530.00000 999528.00000 1514.00000 999416.62500
 999520.00000 999518.00000 1548.00000 999417.50000
 999510.00000 999508.00000 1550.00000 999414.56250
 999500.00000 999498.00000 1548.00000 999410.43750
 999490.00000 999488.00000 1532.00000 999411.06250
 999480.00000 999478.06250 1498.00000 999382.18750
 999470.00000 999468.06250 1477.00000 999339.68750
 999460.00000 999458.06250 1461.00000 999340.37500
 999450.00000 999448.06250 1548.00000 999341.18750
 999440.00000 999438.06250 1564.00000 999341.62500
 999430.00000 999428.06250 1548.00000 999342.00000
 999420.00000 999418.06250 1549.00000 999342.31250
 999410.00000 999408.06250 1533.00000 999342.62500
 999400.00000 999398.06250 1520.00000 999342.81250
 999390.00000 999388.06250 1514.00000 999338.75000
 999380.00000 999378.06250 1482.00000 999334.81250
 999370.00000 999368.06250 1567.00000 999334.93750
 999360.00000 999358.06250 1549.00000 999335.00000
 999350.00000 999348.06250 1565.00000 999334.31250
 999340.00000 999338.06250 1669.00000 999334.12500
 999330.00000 999328.00000 1500.00000 999272.62500
 999320.00000 999318.00000 1498.00000 999206.12500
 999310.00000 999308.00000 1636.00000 999207.00000
 999300.00000 999308.00000 1582.00000 999207.00000
 999290.00000 999308.00000 1584.00000 999207.00000
 999280.00000 999308.00000 1568.00000 999207.00000
 999270.00000 999308.00000 1568.00000 999207.00000
 999260.00000 999308.00000 1583.00000 999207.00000
 999250.00000 999308.00000 1601.00000 999207.00000
 999240.00000 999308.00000 1552.00000 999207.00000
 999230.00000 999308.00000 1516.00000 999207.00000
 999220.00000 999308.00000 1482.00000 999207.00000
 999210.00000 999308.00000 1500.00000 999207.00000
 999200.00000 999308.00000    0.00000 999207.00000
 999190.00000 999308.00000    0.00000 999207.00000
 999180.00000 999308.00000    0.00000 999207.00000
 999170.00000 999308.00000    0.00000 999207.00000
 999160.00000 999308.00000    0.00000 999207.00000
 999150.00000 999308.00000    0.00000 999207.00000
 999140.00000 999308.00000    0.00000 999207.00000
 999130.00000 999308.00000    0.00000 999207.00000
 999120.00000 999308.00000    0.00000 999207.00000
 999110.00000 999308.00000    0.00000 999207.00000
 999100.00000 999308.00000    0.00000 999207.00000
 999090.00000 999308.00000    0.00000 999207.00000
 999080.00000 999308.00000    0.00000 999207.00000
 999070.00000 999308.00000    0.00000 999207.00000
 999060.00000 999308.00000    0.00000 999207.00000
 999050.00000 999308.00000    0.00000 999207.00000
 999040.00000 999308.00000    0.00000 999207.00000
 999030.00000 999308.00000    0.00000 999207.00000
 999020.00000 999308.00000    0.00000 999207.00000
 999010.00000 999308.00000    0.00000 999207.00000
 999000.00000 999308.00000    0.00000 999207.00000
 998990.00000 999308.00000    0.00000 999207.00000
 998980.00000 999308.00000    0.00000 999207.00000
 998970.00000 999308.00000    0.00000 999207.00000
 998960.00000 999308.00000    0.00000 999207.00000
 998950.00000 999308.00000    0.00000 999207.00000
 998940.00000 999308.00000    0.00000 999207.00000
 998930.00000 999308.00000    0.00000 999207.00000
 998920.00000 999308.00000    0.00000 999207.00000
 998910.00000 999308.00000    0.00000 999207.00000
 998900.00000 999308.00000    0.00000 999207.00000
 998890.00000 999308.00000    0.00000 999207.00000
 998880.00000 999308.00000    0.00000 999207.00000
 998870.00000 999308.00000    0.00000 999207.00000
 998860.00000 999308.00000    0.00000 999207.00000
 998850.00000 999308.00000    0.00000 999207.00000
 998840.00000 999308.00000    0.00000 999207.00000
 998830.00000 999308.00000    0.00000 999207.00000
 998820.00000 999308.00000    0.00000 999207.00000
 998810.00000 999308.00000    0.00000 999207.00000
 998800.00000 999308.00000    0.00000 999207.00000
 998790.00000 999308.00000    0.00000 999207.00000
 998780.00000 999308.00000    0.00000 999207.00000
 998770.00000 999308.00000    0.00000 999207.00000
 998760.00000 999308.00000    0.00000 999207.00000
 998750.00000 999308.00000    0.00000 999207.00000
 998740.00000 999308.00000    0.00000 999207.00000
 998730.00000 999308.00000    0.00000 999207.00000
 998720.00000 999308.00000    0.00000 999207.00000
 998710.00000 999308.00000    0.00000 999207.00000
 998700.00000 999308.00000    0.00000 999207.00000
 998690.00000 999308.00000    0.00000 999207.00000
 998680.00000 999308.00000    0.00000 999207.00000
 998670.00000 999308.00000    0.00000 999207.00000
 998660.00000 999308.00000    0.00000 999207.00000
 998650.00000 999308.00000    0.00000 999207.00000
 998640.00000 999308.00000    0.00000 999207.00000
 998630.00000 999308.00000    0.00000 999207.00000
 998620.00000 999308.00000    0.00000 999207.00000
 998610.00000 999308.00000    0.00000 999207.00000
 998600.00000 999308.00000    0.00000 999207.00000
 998590.00000 999308.00000    0.00000 999207.00000
 998580.00000 999308.00000    0.00000 999207.00000
 998570.00000 999308.00000    0.00000 999207.00000
 998560.00000 999308.00000    0.00000 999207.00000
 998550.00000 999308.00000    0.00000 999207.00000
 998540.00000 999308.00000    0.00000 999207.00000
 998530.00000 999308.00000    0.00000 999207.00000
 998520.00000 999308.00000    0.00000 999207.00000
 998510.00000 999308.00000    0.00000 999207.00000
 998500.00000 999308.00000    0.00000 999207.00000
 998490.00000 999308.00000    0.00000 999207.00000
 998480.00000 999308.00000    0.00000 999207.00000
 998470.00000 999308.00000    0.00000 999207.00000
 998460.00000 999308.00000    0.00000 999207.00000
 998450.00000 999308.00000    0.00000 999207.00000
 998440.00000 999308.00000    0.00000 999207.00000
 998430.00000 999308.00000    0.00000 999207.00000
 998420.00000 999308.00000    0.00000 999207.00000
 998410.00000 999308.00000    0.00000 999207.00000
