~Version ---------------------------------------------------
VERS.   2.0 : CWLS log ASCII Standard -VERSION 2.0
WRAP.    NO : One line per depth step
DLM . SPACE : Column Data Section Delimiter
~Well ------------------------------------------------------
STRT.0.1 in 1028280.00000 : START DEPTH
STOP.0.1 in  996610.00000 : STOP DEPTH
STEP.0.1 in     -10.00000 : STEP
NULL.             -999.25 : NULL VALUE
COMP.           PETROBRAS : COMPANY
WELL.      4-BRSA-163-RJS : WELL
FLD .            ALBACORA : FIELD
LOC .                     : LOCATION
PROV.                     : PROVINCE
CNTY.                     : COUNTY
STAT.                     : STATE
CTRY.                     : COUNTRY
SRVC.        Schlumberger : SERVICE COMPANY
DATE. 2002-09-06 08:57:32 : DATE
UWI .         74281020128 : UNIQUE WELL ID
API .         74281020128 : API NUMBER
~Curve Information -----------------------------------------
TDEP.0.1 in  : 1-Inch Frame Depth
IDWD.0.1 in  : Integrated Depth Wheel Depth
TIME.ms      : 1-Inch Frame Time
SCD .0.1 in  : Speed Corrected Depth
~Params ----------------------------------------------------
PROD   .                                                                                                                                                       OP : 
PROG   . ['CMR-A: Combinable Magnetic Resonance Tool - A', 'SGTN: Scintillation Gamma-Ray - N', 'DTCH: DTS Telemetry Tool', 'LEHQT: Logging Equipment Head - QT'] : 
RUN    .                                                                                                                                                    ['1'] : 
DESCENT.                                                                                                                                                   ['-1'] : 
VERSION.                                                                                                                                                 10C0-306 : 
LINEAGE.                                                                                                                               Python-converted from DLIS : 
ORFILE .                                                                                                                        ../inputs/4-brsa-163-rjs_cmr.dlis : 
~Other -----------------------------------------------------
~ASCII -----------------------------------------------------
# ...
 1014870.00000 1014868.00000 1449.00000 1014790.68750
 1014860.00000 1014858.00000 1434.00000 1014791.37500
 1014850.00000 1014848.00000 1488.00000 1014791.87500
 1014840.00000 1014838.00000 1483.00000 1014792.25000
 1014830.00000 1014828.00000 1481.00000 1014792.62500
 1014820.00000 1014818.00000 1485.00000 1014792.81250
 1014810.00000 1014808.00000 1384.00000 1014793.00000
 1014800.00000 1014798.00000 1418.00000 1014793.00000
 1014790.00000 1014788.00000 1418.00000 1014766.56250
 1014780.00000 1014778.00000 1518.00000 1014764.87500
 1014770.00000 1014768.00000 1450.00000 1014765.12500
 1014760.00000 1014758.06250 1436.00000 1014699.87500
 1014750.00000 1014748.06250 1450.00000 1014699.37500
 1014740.00000 1014738.06250 1484.00000 1014700.00000
 1014730.00000 1014728.06250 1470.00000 1014667.50000
 1014720.00000 1014718.06250 1466.00000 1014668.00000
 1014710.00000 1014708.06250 1412.00000 1014656.56250
 1014700.00000 1014698.06250 1417.00000 1014656.31250
 1014690.00000 1014687.93750 1382.00000 1014656.75000
 1014680.00000 1014677.93750 1431.00000 1014644.12500
 1014670.00000 1014668.00000 1452.00000 1014625.12500
 1014660.00000 1014658.00000 1499.00000 1014625.50000
 1014650.00000 1014648.00000 1465.00000 1014625.87500
 1014640.00000 1014638.00000 1482.00000 1014626.18750
 1014630.00000 1014628.00000 1482.00000 1014626.37500
 1014620.00000 1014618.00000 1410.00000 1014592.06250
 1014610.00000 1014608.00000 1482.00000 1014548.31250
 1014600.00000 1014598.00000 1414.00000 1014548.87500
 1014590.00000 1014588.00000 1464.00000 1014549.43750
 1014580.00000 1014578.00000 1518.00000 1014549.93750
 1014570.00000 1014568.00000 1480.00000 1014550.25000
 1014560.00000 1014558.00000 1484.00000 1014550.62500
 1014550.00000 1014548.00000 1566.00000 1014547.12500
 1014540.00000 1014538.00000 1498.00000 1014534.18750
 1014530.00000 1014528.00000 1462.00000 1014491.12500
 1014520.00000 1014518.00000 1428.00000 1014449.56250
 1014510.00000 1014508.00000 1464.00000 1014449.56250
 1014500.00000 1014498.06250 1462.00000 1014450.25000
 1014490.00000 1014488.06250 1464.00000 1014447.06250
 1014480.00000 1014478.06250 1466.00000 1014447.56250
 1014470.00000 1014468.06250 1414.00000 1014447.87500
 1014460.00000 1014458.06250 1414.00000 1014448.12500
 1014450.00000 1014448.06250 1398.00000 1014448.31250
 1014440.00000 1014438.06250 1452.00000 1014435.00000
 1014430.00000 1014427.93750 1472.00000 1014362.00000
 1014420.00000 1014417.93750 1418.00000 1014349.25000
 1014410.00000 1014408.00000 1450.00000 1014350.00000
 1014400.00000 1014398.00000 1436.00000 1014308.31250
 1014390.00000 1014388.00000 1436.00000 1014308.50000
 1014380.00000 1014378.00000 1418.00000 1014309.18750
 1014370.00000 1014368.00000 1470.00000 1014287.43750
 1014360.00000 1014358.00000 1419.00000 1014287.43750
 1014350.00000 1014348.00000 1401.00000 1014287.93750
 1014340.00000 1014338.00000 1434.00000 1014288.31250
 1014330.00000 1014328.00000 1434.00000 1014288.68750
 1014320.00000 1014318.00000 1470.00000 1014288.87500
 1014310.00000 1014308.00000 1536.00000 1014289.06250
 1014300.00000 1014298.00000 1422.00000 1014264.18750
 1014290.00000 1014288.00000 1436.00000 1014263.18750
 1014280.00000 1014278.00000 1422.00000 1014215.56250
 1014270.00000 1014268.00000 1436.00000 1014214.00000
 1014260.00000 1014258.00000 1438.00000 1014214.50000
 1014250.00000 1014248.00000 1434.00000 1014214.93750
 1014240.00000 1014238.06250 1402.00000 1014215.25000
 1014230.00000 1014228.06250 1469.00000 1014215.56250
 1014220.00000 1014218.06250 1465.00000 1014177.75000
 1014210.00000 1014208.06250 1484.00000 1014177.93750
 1014200.00000 1014198.06250 1433.00000 1014178.37500
 1014190.00000 1014188.06250 1415.00000 1014178.62500
 1014180.00000 1014178.06250 1436.00000 1014178.81250
 1014170.00000 1014167.93750 1431.00000 1014179.00000
 1014160.00000 1014157.93750 1435.00000 1014123.37500
 1014150.00000 1014148.00000 1516.00000 1014118.56250
 1014140.00000 1014138.00000 1448.00000 1014110.12500
 1014130.00000 1014128.00000 1480.00000 1014066.56250
 1014120.00000 1014118.00000 1481.00000 1014067.06250
 1014110.00000 1014108.00000 1417.00000 1014067.06250
 1014100.00000 1014098.00000 1450.00000 1014053.75000
 1014090.00000 1014088.00000 1516.00000 1014054.25000
 1014080.00000 1014078.00000 1466.00000 1014054.62500
 1014070.00000 1014068.00000 1468.00000 1014054.93750
 1014060.00000 1014058.00000 1484.00000 1014041.00000
 1014050.00000 1014048.00000 1450.00000 1014040.12500
 1014040.00000 1014038.00000 1469.00000 1013998.12500
 1014030.00000 1014028.00000 1465.00000 1013990.06250
 1014020.00000 1014018.00000 1466.00000 1013990.62500
 1014010.00000 1014008.00000 1415.00000 1013900.06250
 1014000.00000 1013998.00000 1415.00000 1013896.81250
 1013990.00000 1013988.00000 1414.00000 1013897.75000
 1013980.00000 1013978.06250 1416.00000 1013898.56250
 1013970.00000 1013968.06250 1399.00000 1013899.12500
 1013960.00000 1013958.06250 1382.00000 1013899.62500
 1013950.00000 1013948.06250 1381.00000 1013877.31250
 1013940.00000 1013938.06250 1395.00000 1013866.75000
 1013930.00000 1013928.06250 1446.00000 1013867.18750
 1013920.00000 1013918.06250 1415.00000 1013867.62500
 1013910.00000 1013907.93750 1379.00000 1013867.87500
 1013900.00000 1013897.93750 1363.00000 1013868.06250
 1013890.00000 1013888.00000 1410.00000 1013868.25000
 1013880.00000 1013878.00000 1410.00000 1013868.43750
 1013870.00000 1013868.00000 1412.00000 1013856.93750
 1013860.00000 1013858.00000 1446.00000 1013811.75000
 1013850.00000 1013848.00000 1447.00000 1013811.93750
 1013840.00000 1013838.00000 1427.00000 1013810.50000
 1013830.00000 1013828.00000 1380.00000 1013803.00000
 1013820.00000 1013818.00000 1396.00000 1013803.18750
 1013810.00000 1013808.00000 1410.00000 1013803.50000
 1013800.00000 1013798.00000 1392.00000 1013803.68750
 1013790.00000 1013788.00000 1430.00000 1013803.87500
 1013780.00000 1013778.00000 1444.00000 1013804.06250
 1013770.00000 1013768.00000 1447.00000 1013733.12500
 1013760.00000 1013758.00000 1393.00000 1013730.50000
 1013750.00000 1013748.00000 1422.00000 1013716.50000
 1013740.00000 1013738.00000 1408.00000 1013643.56250
 1013730.00000 1013728.00000 1432.00000 1013644.12500
 1013720.00000 1013718.06250 1450.00000 1013645.00000
 1013710.00000 1013708.06250 1398.00000 1013645.68750
 1013700.00000 1013698.06250 1450.00000 1013646.25000
 1013690.00000 1013688.06250 1418.00000 1013646.68750
 1013680.00000 1013678.06250 1482.00000 1013647.00000
 1013670.00000 1013668.06250 1466.00000 1013647.31250
 1013660.00000 1013658.06250 1416.00000 1013647.50000
 1013650.00000 1013647.93750 1400.00000 1013578.68750
 1013640.00000 1013637.93750 1402.00000 1013553.12500
 1013630.00000 1013628.00000 1417.00000 1013553.37500
 1013620.00000 1013618.00000 1451.00000 1013541.00000
 1013610.00000 1013608.00000 1504.00000 1013541.25000
 1013600.00000 1013598.00000 1418.00000 1013541.75000
 1013590.00000 1013588.00000 1386.00000 1013542.12500
 1013580.00000 1013578.00000 1436.00000 1013542.43750
 1013570.00000 1013568.00000 1402.00000 1013542.62500
 1013560.00000 1013558.00000 1383.00000 1013512.43750
 1013550.00000 1013548.00000 1387.00000 1013501.31250
 1013540.00000 1013538.00000 1384.00000 1013501.50000
 1013530.00000 1013528.00000 1418.00000 1013493.81250
 1013520.00000 1013518.00000 1468.00000 1013491.12500
 1013510.00000 1013508.00000 1447.00000 1013491.37500
 1013500.00000 1013498.00000 1430.00000 1013458.81250
 1013490.00000 1013488.00000 1381.00000 1013457.00000
 1013480.00000 1013478.00000 1382.00000 1013447.25000
 1013470.00000 1013468.00000 1416.00000 1013420.37500
 1013460.00000 1013458.06250 1416.00000 1013417.93750
 1013450.00000 1013448.06250 1414.00000 1013417.56250
 1013440.00000 1013438.06250 1398.00000 1013401.81250
 1013430.00000 1013428.06250 1467.00000 1013379.43750
 1013420.00000 1013418.06250 1498.00000 1013379.18750
 1013410.00000 1013408.06250 1432.00000 1013326.43750
 1013400.00000 1013398.06250 1400.00000 1013320.00000
 1013390.00000 1013387.93750 1433.00000 1013320.68750
