~Version ---------------------------------------------------
VERS.   2.0 : CWLS log ASCII Standard -VERSION 2.0
WRAP.    NO : One line per depth step
DLM . SPACE : Column Data Section Delimiter
~Well ------------------------------------------------------
STRT.0.1 in 1028280.00000 : START DEPTH
STOP.0.1 in  996610.00000 : STOP DEPTH
STEP.0.1 in     -10.00000 : STEP
NULL.             -999.25 : NULL VALUE
COMP.           PETROBRAS : COMPANY
WELL.      4-BRSA-163-RJS : WELL
FLD .            ALBACORA : FIELD
LOC .                     : LOCATION
PROV.                     : PROVINCE
CNTY.                     : COUNTY
STAT.                     : STATE
CTRY.                     : COUNTRY
SRVC.        Schlumberger : SERVICE COMPANY
DATE. 2002-09-06 08:57:32 : DATE
UWI .         74281020128 : UNIQUE WELL ID
API .         74281020128 : API NUMBER
~Curve Information -----------------------------------------
TDEP.0.1 in  : 1-Inch Frame Depth
IDWD.0.1 in  : Integrated Depth Wheel Depth
TIME.ms      : 1-Inch Frame Time
SCD .0.1 in  : Speed Corrected Depth
~Params ----------------------------------------------------
PROD   .                                                                                                                                                       OP : 
PROG   . ['CMR-A: Combinable Magnetic Resonance Tool - A', 'SGTN: Scintillation Gamma-Ray - N', 'DTCH: DTS Telemetry Tool', 'LEHQT: Logging Equipment Head - QT'] : 
RUN    .                                                                                                                                                    ['1'] : 
DESCENT.                                                                                                                                                   ['-1'] : 
VERSION.                                                                                                                                                 10C0-306 : 
LINEAGE.                                                                                                                               Python-converted from DLIS : 
ORFILE .                                                                                                                        ../inputs/4-brsa-163-rjs_cmr.dlis : 
~Other -----------------------------------------------------
~ASCII -----------------------------------------------------
# ...
 1008910.00000 1008908.00000 1492.00000 1008854.25000
 1008900.00000 1008898.00000 1509.00000 1008849.81250
 1008890.00000 1008888.00000 1494.00000 1008850.12500
 1008880.00000 1008878.00000 1459.00000 1008786.81250
 1008870.00000 1008868.00000 1509.00000 1008786.31250
 1008860.00000 1008858.00000 1446.00000 1008786.87500
 1008850.00000 1008848.00000 1446.00000 1008787.37500
 1008840.00000 1008838.00000 1464.00000 1008787.75000
 1008830.00000 1008828.00000 1465.00000 1008787.93750
 1008820.00000 1008818.00000 1485.00000 1008734.87500
 1008810.00000 1008808.00000 1466.00000 1008735.00000
 1008800.00000 1008798.06250 1517.00000 1008735.56250
 1008790.00000 1008788.06250 1517.00000 1008726.62500
 1008780.00000 1008778.06250 1516.00000 1008726.50000
 1008770.00000 1008768.06250 1467.00000 1008726.81250
 1008760.00000 1008758.06250 1433.00000 1008698.81250
 1008750.00000 1008748.06250 1453.00000 1008697.87500
 1008740.00000 1008738.06250 1435.00000 1008698.25000
 1008730.00000 1008728.06250 1501.00000 1008631.93750
 1008720.00000 1008718.06250 1454.00000 1008632.06250
 1008710.00000 1008708.06250 1502.00000 1008632.62500
 1008700.00000 1008698.00000 1501.00000 1008602.06250
 1008690.00000 1008688.00000 1486.00000 1008602.50000
 1008680.00000 1008678.00000 1504.00000 1008603.00000
 1008670.00000 1008668.00000 1470.00000 1008603.50000
 1008660.00000 1008658.00000 1452.00000 1008603.75000
 1008650.00000 1008648.00000 1452.00000 1008604.00000
 1008640.00000 1008638.00000 1485.00000 1008581.75000
 1008630.00000 1008628.00000 1537.00000 1008576.12500
 1008620.00000 1008618.00000 1517.00000 1008568.87500
 1008610.00000 1008608.00000 1564.00000 1008496.81250
 1008600.00000 1008598.00000 1499.00000 1008496.68750
 1008590.00000 1008588.00000 1530.00000 1008497.50000
 1008580.00000 1008578.00000 1532.00000 1008498.06250
 1008570.00000 1008568.00000 1534.00000 1008498.43750
 1008560.00000 1008558.00000 1602.00000 1008498.81250
 1008550.00000 1008548.00000 1599.00000 1008499.12500
 1008540.00000 1008538.06250 1720.00000 1008499.31250
 1008530.00000 1008528.06250 1519.00000 1008499.37500
 1008520.00000 1008518.06250 1455.00000 1008436.31250
 1008510.00000 1008508.06250 1437.00000 1008433.93750
 1008500.00000 1008498.06250 1470.00000 1008434.50000
 1008490.00000 1008488.06250 1522.00000 1008413.25000
 1008480.00000 1008478.06250 1459.00000 1008412.12500
 1008470.00000 1008468.06250 1457.00000 1008412.62500
 1008460.00000 1008458.06250 1478.00000 1008412.87500
 1008450.00000 1008448.06250 1526.00000 1008410.18750
 1008440.00000 1008438.00000 1493.00000 1008389.93750
 1008430.00000 1008428.00000 1442.00000 1008329.81250
 1008420.00000 1008418.00000 1441.00000 1008329.18750
 1008410.00000 1008408.00000 1441.00000 1008329.81250
 1008400.00000 1008398.00000 1529.00000 1008330.43750
 1008390.00000 1008388.00000 1558.00000 1008330.81250
 1008380.00000 1008378.00000 1525.00000 1008331.18750
 1008370.00000 1008368.00000 1507.00000 1008310.62500
 1008360.00000 1008358.00000 1456.00000 1008307.43750
 1008350.00000 1008348.00000 1470.00000 1008299.06250
 1008340.00000 1008338.00000 1535.00000 1008270.25000
 1008330.00000 1008328.00000 1482.00000 1008270.43750
 1008320.00000 1008318.00000 1486.00000 1008270.81250
 1008310.00000 1008308.00000 1467.00000 1008271.12500
 1008300.00000 1008298.00000 1498.00000 1008271.37500
 1008290.00000 1008288.00000 1511.00000 1008271.62500
 1008280.00000 1008278.06250 1581.00000 1008261.81250
 1008270.00000 1008268.06250 1564.00000 1008253.50000
 1008260.00000 1008258.06250 1518.00000 1008250.25000
 1008250.00000 1008248.06250 1516.00000 1008166.25000
 1008240.00000 1008238.06250 1466.00000 1008162.00000
 1008230.00000 1008228.06250 1466.00000 1008162.81250
 1008220.00000 1008218.06250 1484.00000 1008155.50000
 1008210.00000 1008208.06250 1468.00000 1008155.87500
 1008200.00000 1008198.06250 1499.00000 1008156.37500
 1008190.00000 1008188.06250 1517.00000 1008154.62500
 1008180.00000 1008178.00000 1546.00000 1008153.93750
 1008170.00000 1008168.00000 1512.00000 1008154.12500
 1008160.00000 1008158.00000 1500.00000 1008089.62500
 1008150.00000 1008148.00000 1535.00000 1008067.93750
 1008140.00000 1008138.00000 1570.00000 1008068.37500
 1008130.00000 1008128.00000 1538.00000 1008017.37500
 1008120.00000 1008118.00000 1587.00000 1008010.25000
 1008110.00000 1008108.00000 1538.00000 1008011.12500
 1008100.00000 1008098.00000 1552.00000 1008011.68750
 1008090.00000 1008088.00000 1538.00000 1008012.25000
 1008080.00000 1008078.00000 1518.00000 1008012.62500
 1008070.00000 1008068.00000 1517.00000 1007988.50000
 1008060.00000 1008058.00000 1503.00000 1007974.18750
 1008050.00000 1008048.00000 1504.00000 1007974.56250
 1008040.00000 1008038.00000 1568.00000 1007974.87500
 1008030.00000 1008028.00000 1587.00000 1007962.18750
 1008020.00000 1008018.06250 1539.00000 1007962.50000
 1008010.00000 1008008.06250 1540.00000 1007932.00000
 1008000.00000 1007998.06250 1536.00000 1007923.93750
 1007990.00000 1007988.06250 1454.00000 1007924.43750
 1007980.00000 1007978.06250 1470.00000 1007909.31250
 1007970.00000 1007968.06250 1506.00000 1007907.18750
 1007960.00000 1007958.06250 1504.00000 1007907.62500
 1007950.00000 1007948.06250 1504.00000 1007907.81250
 1007940.00000 1007938.06250 1534.00000 1007893.25000
 1007930.00000 1007928.06250 1569.00000 1007886.43750
 1007920.00000 1007918.00000 1517.00000 1007857.43750
 1007910.00000 1007908.00000 1570.00000 1007856.06250
 1007900.00000 1007898.00000 1534.00000 1007856.56250
 1007890.00000 1007888.00000 1521.00000 1007841.25000
 1007880.00000 1007878.00000 1501.00000 1007807.81250
 1007870.00000 1007868.00000 1450.00000 1007808.18750
 1007860.00000 1007858.00000 1481.00000 1007755.12500
 1007850.00000 1007848.00000 1517.00000 1007747.00000
 1007840.00000 1007838.00000 1550.00000 1007747.75000
 1007830.00000 1007828.00000 1570.00000 1007748.43750
 1007820.00000 1007818.00000 1534.00000 1007748.87500
 1007810.00000 1007808.00000 1484.00000 1007749.18750
 1007800.00000 1007798.00000 1486.00000 1007743.62500
 1007790.00000 1007788.00000 1486.00000 1007733.43750
 1007780.00000 1007778.00000 1536.00000 1007733.68750
 1007770.00000 1007768.06250 1518.00000 1007667.31250
 1007760.00000 1007758.06250 1470.00000 1007644.68750
 1007750.00000 1007748.06250 1520.00000 1007645.56250
 1007740.00000 1007738.06250 1519.00000 1007646.25000
 1007730.00000 1007728.06250 1538.00000 1007646.81250
 1007720.00000 1007718.06250 1487.00000 1007647.18750
 1007710.00000 1007708.06250 1504.00000 1007647.50000
 1007700.00000 1007698.06250 1588.00000 1007647.81250
 1007690.00000 1007688.06250 1588.00000 1007648.00000
 1007680.00000 1007678.06250 1624.00000 1007616.06250
 1007670.00000 1007668.06250 1540.00000 1007570.62500
 1007660.00000 1007658.00000 1571.00000 1007570.81250
 1007650.00000 1007648.00000 1537.00000 1007570.62500
 1007640.00000 1007638.00000 1520.00000 1007566.00000
 1007630.00000 1007628.00000 1507.00000 1007566.37500
 1007620.00000 1007618.00000 1523.00000 1007566.68750
 1007610.00000 1007608.00000 1538.00000 1007566.93750
 1007600.00000 1007598.00000 1558.00000 1007567.12500
 1007590.00000 1007588.00000 1574.00000 1007531.00000
 1007580.00000 1007578.00000 1540.00000 1007530.25000
 1007570.00000 1007568.00000 1557.00000 1007530.62500
 1007560.00000 1007558.00000 1555.00000 1007530.93750
 1007550.00000 1007548.00000 1522.00000 1007518.00000
 1007540.00000 1007538.00000 1524.00000 1007515.12500
 1007530.00000 1007528.00000 1554.00000 1007501.31250
 1007520.00000 1007518.00000 1502.00000 1007462.75000
 1007510.00000 1007508.06250 1590.00000 1007462.93750
 1007500.00000 1007498.06250 1590.00000 1007427.56250
 1007490.00000 1007488.06250 1591.00000 1007393.62500
 1007480.00000 1007478.06250 1576.00000 1007394.50000
 1007470.00000 1007468.06250 1575.00000 1007373.00000
 1007460.00000 1007458.06250 1558.00000 1007371.75000
 1007450.00000 1007448.06250 1524.00000 1007372.31250
 1007440.00000 1007438.06250 1526.00000 1007372.68750
 1007430.00000 1007428.06250 1576.00000 1007373.06250
