~Version ---------------------------------------------------
VERS.   2.0 : CWLS log ASCII Standard -VERSION 2.0
WRAP.    NO : One line per depth step
DLM . SPACE : Column Data Section Delimiter
~Well ------------------------------------------------------
STRT.0.1 in 1028280.00000 : START DEPTH
STOP.0.1 in  996610.00000 : STOP DEPTH
STEP.0.1 in     -10.00000 : STEP
NULL.             -999.25 : NULL VALUE
COMP.           PETROBRAS : COMPANY
WELL.      4-BRSA-163-RJS : WELL
FLD .            ALBACORA : FIELD
LOC .                     : LOCATION
PROV.                     : PROVINCE
CNTY.                     : COUNTY
STAT.                     : STATE
CTRY.                     : COUNTRY
SRVC.        Schlumberger : SERVICE COMPANY
DATE. 2002-09-06 08:57:32 : DATE
UWI .         74281020128 : UNIQUE WELL ID
API .         74281020128 : API NUMBER
~Curve Information -----------------------------------------
TDEP.0.1 in  : 1-Inch Frame Depth
IDWD.0.1 in  : Integrated Depth Wheel Depth
TIME.ms      : 1-Inch Frame Time
SCD .0.1 in  : Speed Corrected Depth
~Params ----------------------------------------------------
PROD   .                                                                                                                                                       OP : 
PROG   . ['CMR-A: Combinable Magnetic Resonance Tool - A', 'SGTN: Scintillation Gamma-Ray - N', 'DTCH: DTS Telemetry Tool', 'LEHQT: Logging Equipment Head - QT'] : 
RUN    .                                                                                                                                                    ['1'] : 
DESCENT.                                                                                                                                                   ['-1'] : 
VERSION.                                                                                                                                                 10C0-306 : 
LINEAGE.                                                                                                                               Python-converted from DLIS : 
ORFILE .                                                                                                                        ../inputs/4-brsa-163-rjs_cmr.dlis : 
~Other -----------------------------------------------------
~ASCII -----------------------------------------------------
# ...
 1004440.00000 1004438.00000 1506.00000 1004398.87500
 1004430.00000 1004428.00000 1488.00000 1004397.00000
 1004420.00000 1004418.00000 1488.00000 1004310.00000
 1004410.00000 1004408.00000 1506.00000 1004309.87500
 1004400.00000 1004398.06250 1486.00000 1004310.87500
 1004390.00000 1004388.06250 1494.00000 1004311.43750
 1004380.00000 1004378.06250 1564.00000 1004312.00000
 1004370.00000 1004368.06250 1664.00000 1004312.37500
 1004360.00000 1004358.06250 1530.00000 1004312.56250
 1004350.00000 1004348.06250 1516.00000 1004268.75000
 1004340.00000 1004338.06250 1528.00000 1004269.06250
 1004330.00000 1004328.06250 1408.00000 1004260.50000
 1004320.00000 1004318.06250 1480.00000 1004257.25000
 1004310.00000 1004308.06250 1427.00000 1004257.62500
 1004300.00000 1004298.06250 1495.00000 1004240.68750
 1004290.00000 1004288.06250 1548.00000 1004237.68750
 1004280.00000 1004278.06250 1563.00000 1004238.00000
 1004270.00000 1004268.00000 1563.00000 1004238.31250
 1004260.00000 1004258.00000 1528.00000 1004238.50000
 1004250.00000 1004248.00000 1560.00000 1004238.68750
 1004240.00000 1004238.00000 1544.00000 1004154.18750
 1004230.00000 1004228.00000 1526.00000 1004118.43750
 1004220.00000 1004218.00000 1476.00000 1004119.31250
 1004210.00000 1004208.00000 1462.00000 1004120.06250
 1004200.00000 1004198.00000 1560.00000 1004120.75000
 1004190.00000 1004188.00000 1562.00000 1004121.18750
 1004180.00000 1004178.00000 1564.00000 1004121.62500
 1004170.00000 1004168.00000 1561.00000 1004121.87500
 1004160.00000 1004158.00000 1596.00000 1004111.68750
 1004150.00000 1004148.00000 1633.00000 1004077.37500
 1004140.00000 1004138.06250 1666.00000 1004077.68750
 1004130.00000 1004128.06250 1654.00000 1004078.06250
 1004120.00000 1004118.06250 1615.00000 1004078.43750
 1004110.00000 1004108.06250 1666.00000 1004074.00000
 1004100.00000 1004098.06250 1631.00000 1004074.00000
 1004090.00000 1004088.06250 1546.00000 1004048.37500
 1004080.00000 1004078.06250 1512.00000 1004036.93750
 1004070.00000 1004068.06250 1580.00000 1004037.31250
 1004060.00000 1004058.06250 1646.00000 1004000.00000
 1004050.00000 1004048.06250 1666.00000 1003998.37500
 1004040.00000 1004038.06250 1580.00000 1003978.75000
 1004030.00000 1004028.06250 1563.00000 1003971.25000
 1004020.00000 1004018.06250 1631.00000 1003971.37500
 1004010.00000 1004008.00000 1698.00000 1003971.75000
 1004000.00000 1003998.00000 1511.00000 1003937.81250
 1003990.00000 1003988.00000 1531.00000 1003929.00000
 1003980.00000 1003978.00000 1478.00000 1003929.56250
 1003970.00000 1003968.00000 1612.00000 1003922.06250
 1003960.00000 1003958.00000 1594.00000 1003890.31250
 1003950.00000 1003948.00000 1560.00000 1003890.93750
 1003940.00000 1003938.00000 1608.00000 1003862.93750
 1003930.00000 1003928.00000 1610.00000 1003858.50000
 1003920.00000 1003918.00000 1694.00000 1003859.12500
 1003910.00000 1003908.00000 1560.00000 1003859.50000
 1003900.00000 1003898.00000 1526.00000 1003859.75000
 1003890.00000 1003888.00000 1542.00000 1003860.06250
 1003880.00000 1003878.06250 1594.00000 1003860.25000
 1003870.00000 1003868.06250 1675.00000 1003806.12500
 1003860.00000 1003858.06250 1611.00000 1003804.18750
 1003850.00000 1003848.06250 1562.00000 1003771.31250
 1003840.00000 1003838.06250 1542.00000 1003744.68750
 1003830.00000 1003828.06250 1576.00000 1003745.50000
 1003820.00000 1003818.06250 1546.00000 1003746.18750
 1003810.00000 1003808.06250 1546.00000 1003746.62500
 1003800.00000 1003798.06250 1560.00000 1003746.93750
 1003790.00000 1003788.06250 1576.00000 1003747.18750
 1003780.00000 1003778.06250 1561.00000 1003747.50000
 1003770.00000 1003768.06250 1563.00000 1003747.62500
 1003760.00000 1003758.06250 1576.00000 1003737.12500
 1003750.00000 1003748.00000 1544.00000 1003697.50000
 1003740.00000 1003738.00000 1560.00000 1003697.68750
 1003730.00000 1003728.00000 1662.00000 1003698.12500
 1003720.00000 1003718.00000 1580.00000 1003698.50000
 1003710.00000 1003708.00000 1578.00000 1003698.68750
 1003700.00000 1003698.00000 1528.00000 1003643.18750
 1003690.00000 1003688.00000 1612.00000 1003635.31250
 1003680.00000 1003678.00000 1578.00000 1003636.00000
 1003670.00000 1003668.00000 1512.00000 1003600.43750
 1003660.00000 1003658.00000 1547.00000 1003597.56250
 1003650.00000 1003648.00000 1529.00000 1003598.12500
 1003640.00000 1003638.00000 1611.00000 1003598.62500
 1003630.00000 1003628.00000 1647.00000 1003596.62500
 1003620.00000 1003618.06250 1632.00000 1003595.62500
 1003610.00000 1003608.06250 1682.00000 1003575.37500
 1003600.00000 1003598.06250 1596.00000 1003483.25000
 1003590.00000 1003588.06250 1578.00000 1003483.68750
 1003580.00000 1003578.06250 1530.00000 1003484.50000
 1003570.00000 1003568.06250 1646.00000 1003478.75000
 1003560.00000 1003558.06250 1647.00000 1003479.43750
 1003550.00000 1003548.06250 1595.00000 1003479.81250
 1003540.00000 1003538.06250 1581.00000 1003449.81250
 1003530.00000 1003528.06250 1633.00000 1003450.00000
 1003520.00000 1003518.06250 1702.00000 1003450.37500
 1003510.00000 1003508.06250 1584.00000 1003450.18750
 1003500.00000 1003498.06250 1601.00000 1003446.56250
 1003490.00000 1003488.00000 1601.00000 1003426.87500
 1003480.00000 1003478.00000 1601.00000 1003392.75000
 1003470.00000 1003468.00000 1583.00000 1003393.12500
 1003460.00000 1003458.00000 1550.00000 1003393.50000
 1003450.00000 1003448.00000 1620.00000 1003393.87500
 1003440.00000 1003438.00000 1550.00000 1003394.18750
 1003430.00000 1003428.00000 1602.00000 1003394.37500
 1003420.00000 1003418.00000 1603.00000 1003394.56250
 1003410.00000 1003408.00000 1550.00000 1003394.62500
 1003400.00000 1003398.00000 1601.00000 1003369.18750
 1003390.00000 1003388.00000 1600.00000 1003351.87500
 1003380.00000 1003378.00000 1634.00000 1003352.37500
 1003370.00000 1003368.00000 1652.00000 1003352.62500
 1003360.00000 1003358.06250 1586.00000 1003283.75000
 1003350.00000 1003348.06250 1601.00000 1003284.00000
 1003340.00000 1003338.06250 1600.00000 1003284.68750
 1003330.00000 1003328.06250 1649.00000 1003283.62500
 1003320.00000 1003318.06250 1647.00000 1003284.00000
 1003310.00000 1003308.06250 1665.00000 1003236.12500
 1003300.00000 1003298.06250 1732.00000 1003228.06250
 1003290.00000 1003288.06250 1662.00000 1003228.75000
 1003280.00000 1003278.06250 1663.00000 1003204.75000
 1003270.00000 1003268.06250 1631.00000 1003197.43750
 1003260.00000 1003258.06250 1646.00000 1003198.00000
 1003250.00000 1003248.06250 1630.00000 1003198.37500
 1003240.00000 1003238.06250 1612.00000 1003198.68750
 1003230.00000 1003228.00000 1659.00000 1003198.93750
 1003220.00000 1003218.00000 1671.00000 1003199.12500
 1003210.00000 1003208.00000 1724.00000 1003150.06250
 1003200.00000 1003198.00000 1658.00000 1003150.43750
 1003190.00000 1003188.00000 1556.00000 1003111.31250
 1003180.00000 1003178.00000 1621.00000 1003086.68750
 1003170.00000 1003168.00000 1350.00000 1003087.37500
 1003160.00000 1003158.00000 1401.00000 1003087.93750
 1003150.00000 1003148.00000 1487.00000 1003088.31250
 1003140.00000 1003138.00000 1573.00000 1003088.68750
 1003130.00000 1003128.00000 1554.00000 1003089.00000
 1003120.00000 1003118.00000 1624.00000 1003023.62500
 1003110.00000 1003108.00000 1693.00000 1003023.62500
 1003100.00000 1003098.06250 1911.00000 1003024.31250
 1003090.00000 1003088.06250 1860.00000 1003024.68750
 1003080.00000 1003078.06250 1622.00000 1003025.00000
 1003070.00000 1003068.06250 1655.00000 1003025.25000
 1003060.00000 1003058.06250 1601.00000 1003025.43750
 1003050.00000 1003048.06250 1638.00000 1003025.56250
 1003040.00000 1003038.06250 1584.00000 1003020.37500
 1003030.00000 1003028.06250 1586.00000 1002975.56250
 1003020.00000 1003018.06250 1503.00000 1002963.75000
 1003010.00000 1003008.06250 1416.00000 1002964.12500
 1003000.00000 1002998.06250 1549.00000 1002935.87500
 1002990.00000 1002988.06250 1602.00000 1002929.62500
 1002980.00000 1002978.06250 1772.00000 1002930.18750
 1002970.00000 1002968.00000 1501.00000 1002930.62500
 1002960.00000 1002958.00000 1587.00000 1002930.87500
